,시리얼번호,기온(℃),조도(lux),자외선(UVI),자치구,주소,위도,경도,idx,temp_rank,uv_rank,lux_rank,sum_val
74,V02Q1940884,29.835114503816786,9447.786259541983,0.4053435114503817,관악구,서울특별시 관악구 신림동 1439-3,37.48739741,126.9271244,57,575.244,242.88,214.852,1032.976
58,V02Q1940179,29.656140350877195,10926.263157894737,0.4649122807017543,강서구,서울특별시 강서구 화곡동 46-156,37.54386703,126.8476199,41,556.51,246.72,218.405,1021.635
66,V02Q1940935,29.6078125,10329.1015625,0.4203125,중구,서울특별시 중구 덕수궁길 15 서울시청 서소문별관3동,37.5648,126.975981,49,549.898,244.79999999999998,217.15099999999998,1011.8489999999999
143,V02Q1940848,29.884558823529428,7663.9191176470595,0.2875000000000001,종로구,서울특별시 종로구 이화동 9-264,37.57769818,127.006748,123,579.652,227.04,203.775,1010.467
36,V02Q1940670,29.557480314960628,8379.83464566929,0.5543307086614172,성동구,서울특별시 성동구 성수동1가 34-17,37.53927918,127.0498732,22,547.143,251.28,209.209,1007.6320000000001
135,V02Q1940843,29.745255474452566,7579.883211678832,0.2970802919708029,종로구,서울특별시 종로구 재동 54-1,37.57893651,126.9859126,116,569.183,228.72,202.939,1000.842
100,V02Q1940156,29.63214285714284,8714.669642857143,0.34553571428571433,성동구,서울특별시 성동구 마장동 780,37.56667486,127.0455215,82,552.653,236.88,210.881,1000.414
145,V02Q1940520,29.72000000000001,7353.162962962962,0.28444444444444444,서대문구,서울특별시 서대문구 남가좌동 319-23,37.57822552,126.9232322,125,565.8770000000001,226.56,201.267,993.7040000000002
183,V02Q1940449,29.879999999999992,6912.708333333332,0.2575000000000001,마포구,서울특별시 마포구 망원동 403-2,37.55579118,126.9059871,162,579.101,217.67999999999998,194.99699999999999,991.7779999999999
138,V02Q1940439,29.666942148760327,7734.223140495867,0.2917355371900826,마포구,서울특별시 마포구 성산동 630-3,37.55989095,126.9174751,118,557.6120000000001,228.23999999999998,204.402,990.2540000000001
194,V02Q1940517,29.979259259259248,6754.6518518518515,0.25407407407407423,관악구,서울특별시 관악구 신원로 3다길 1,37.48248622,126.9264971,173,581.856,215.04,191.862,988.7579999999999
152,V02Q1940686,29.649606299212614,7393.267716535434,0.27952755905511817,용산구,서울특별시 용산구 이태원동 260-118,37.54135461,126.9911155,132,555.408,224.88,201.476,981.764
178,V02Q1940769,29.72403100775195,6912.193798449613,0.2596899224806202,양천구,서울특별시 양천구 신정동 874-4,37.52786532,126.8557268,157,567.5300000000001,218.88,194.78799999999998,981.1980000000001
26,V02Q1940278,29.3220338983051,16086.483050847455,0.6762711864406782,동작구,서울특별시 동작구 노량진동 84-102,37.5124009,126.9425468,15,501.96100000000007,252.95999999999998,223.003,977.924
213,V02Q1940447,29.852941176470576,6606.1092436974795,0.2453781512605043,양천구,서울특별시 양천구 신월동 910-2,37.52427347,126.8314064,192,576.897,210.48,189.14499999999998,976.522
81,V02Q1940285,29.39576271186441,9472.440677966102,0.3745762711864408,마포구,서울특별시 마포구 망원동 386-15,37.55472248,126.9103629,63,519.5930000000001,241.44,215.26999999999998,976.3030000000001
140,V02Q1940373,29.511016949152538,7737.949152542373,0.2889830508474577,은평구,서울특별시 은평구 응암동 604-5,37.58993857,126.9172919,120,542.735,227.76,204.611,975.106
121,V02Q1940863,29.480303030303027,7983.742424242424,0.3151515151515152,양천구,서울특별시 양천구 신정동 294-18,37.51887605,126.8710894,103,535.0210000000001,231.84,206.07399999999998,972.9350000000001
233,V02Q1940182,30.250892857142855,6088.910714285716,0.23125000000000004,강서구,서울특별시 강서구 화곡동 851-20,37.53237894,126.8553371,212,585.162,205.67999999999998,181.62099999999998,972.463
167,V02Q1940413,29.647008547008546,6881.136752136752,0.2666666666666667,양천구,서울특별시 양천구 신월동 883,37.5246553,126.8444487,146,554.8570000000001,221.51999999999998,194.161,970.538
88,V02Q1940395,29.382539682539683,9128.230158730159,0.36746031746031743,양천구,서울특별시 양천구 신월동 275,37.5389107,126.829309,70,515.736,239.76,212.971,968.467
153,V02Q1940450,29.88559322033898,5393.491525423729,0.27796610169491515,마포구,서울특별시 마포구 연남동 361-24,37.56548077,126.9177741,133,580.2030000000001,224.64,162.184,967.027
122,V02Q1940614,29.452272727272714,8028.113636363636,0.3121212121212121,양천구,서울특별시 양천구 목동 843,37.53754208,126.8717674,104,527.307,231.6,206.492,965.399
91,V02Q1940163,29.37153846153848,8960.723076923077,0.3584615384615386,강서구,서울특별시 강서구 공항동 60-10,37.55938828,126.8098556,73,512.4300000000001,239.04,212.135,963.605
120,V02Q1940799,29.41969696969697,8103.69696969697,0.3159090909090909,도봉구,서울특별시 도봉구 창동 557-72,37.6378168,127.038271,102,523.45,232.07999999999998,207.53699999999998,963.067
206,V02Q1940601,29.67175572519083,6716.81679389313,0.2496183206106871,성동구,서울특별시 성동구 사근동 182-17,37.56026457,127.0480146,185,559.816,212.16,191.02599999999998,963.002
92,V02Q1940814,29.362499999999986,9076.39705882353,0.3573529411764705,양천구,서울특별시 양천구 신정동 1142,37.51938461,126.85466809999998,74,510.77700000000004,238.79999999999998,212.762,962.3389999999999
214,V02Q1940442,29.704132231404966,6608.01652892562,0.2446280991735537,마포구,서울특별시 마포구 망원동 416-7,37.55753805,126.9029616,193,562.571,210.23999999999998,189.35399999999998,962.165
149,V02Q1940643,29.473643410852713,7526.829457364341,0.2829457364341084,마포구,서울특별시 마포구 합정동 85-9,37.54433165,126.9129634,129,533.368,225.6,202.31199999999998,961.2800000000001
168,V02Q1940606,29.503149606299218,7021.9448818897645,0.2653543307086614,마포구,서울특별시 마포구 노고산동 33-24,37.55445921,126.93769240000002,147,541.633,221.28,197.714,960.627
118,V02Q1940945,29.39071428571428,8360.107142857143,0.3185714285714287,마포구,서울특별시 마포구 망원동 403-6,37.55524371,126.9069028,100,517.94,232.56,208.791,959.2909999999999
65,V02Q1940750,29.3,10465.46511627907,0.4209302325581395,양천구,서울특별시 양천구 신월동 976-1,37.52197114,126.8359083,48,496.451,245.04,217.778,959.269
221,V02Q1940944,29.718382352941195,6463.5808823529405,0.2411764705882352,중랑구,서울특별시 중랑구 묵동 249-24,37.60504164,127.07543259999998,200,564.7750000000001,208.56,185.801,959.136
77,V02Q1940842,29.308823529411768,9591.735294117647,0.3911764705882352,성동구,서울특별시 성동구 응봉동 15,37.55214248,127.0355848,59,499.206,242.39999999999998,215.47899999999998,957.085
30,V02Q1940850,29.231297709923663,14354.36641221374,0.5992366412213741,영등포구,서울특별시 영등포구 당산동3가 250,37.52497813,126.8974438,18,475.51300000000003,252.23999999999998,222.58499999999998,950.338
271,V02Q1940835,29.842553191489372,5870.680851063829,0.2127659574468086,양천구,서울특별시 양천구 신정동 1019-19,37.52115715,126.86114,250,576.346,196.56,176.396,949.3019999999999
231,V02Q1940849,29.66917293233081,6285.383458646616,0.23383458646616545,양천구,서울특별시 양천구 신월동 92-17,37.53555966,126.8328365,210,558.163,206.16,183.71099999999998,948.034
134,V02Q1940753,29.384732824427484,7579.18320610687,0.2977099236641222,성동구,서울특별시 성동구 금호동1가 1500-3,37.54936466,127.0266557,115,516.287,228.95999999999998,202.73,947.9770000000001
86,V02Q1940133,29.284347826086968,8993.782608695652,0.3686956521739129,영등포구,서울특별시 영등포구 양평동4가 93-1,37.53685591,126.8948496,68,492.59400000000005,240.23999999999998,212.344,945.1780000000001
205,V02Q1940803,29.542222222222204,6518.992592592593,0.2496296296296296,양천구,서울특별시 양천구 목동 458-4,37.52303768,126.8722936,184,545.49,212.4,186.846,944.736
250,V02Q1940162,29.693495934959344,5973.186991869919,0.22276422764227652,강서구,서울특별시 강서구 화곡동 355-48,37.53059931,126.8405692,229,560.918,201.6,179.322,941.84
102,V02Q1940073,29.29173553719009,8479.438016528926,0.3380165289256197,구로구,서울특별시 구로구 구로동 426-83,37.49382607,126.8840768,84,494.79800000000006,236.39999999999998,210.254,941.4520000000001
237,V02Q1940647,29.623015873015863,6326.468253968254,0.2301587301587301,마포구,서울특별시 마포구 공덕동 23-1,37.54948025,126.958483,216,551.551,204.72,184.338,940.609
274,V02Q1940533,29.719999999999995,5915.133333333332,0.2125,관악구,서울특별시 관악구 신림동 562,37.48305759,126.9079688,253,565.326,195.84,177.441,938.6070000000001
174,V02Q1940583,29.45968992248063,6432.798449612404,0.2612403100775194,마포구,서울특별시 마포구 상수동 347-8,37.54520551,126.9233909,153,531.715,219.84,185.38299999999998,936.9380000000001
61,V02Q1940340,29.2225,10520.625,0.4300000000000002,강북구,서울특별시 강북구 미아동 229-22,37.6255552,127.02721499999998,44,472.20700000000005,246.0,217.987,936.1940000000001
25,V02Q1940810,29.182307692307692,12475.1,0.7007692307692308,종로구,서울특별시 종로구 창신동 197-17,37.57367794,127.0132041,14,461.187,253.2,221.54,935.9269999999999
59,V02Q1940887,29.211538461538467,11012.107692307693,0.4546153846153847,송파구,서울특별시 송파구 삼전동 62,37.50274913,127.0925242,42,470.55400000000003,246.48,218.82299999999998,935.857
242,V02Q1940247,29.631304347826084,5990.973913043478,0.2269565217391304,금천구,서울특별시 금천구 독산도서관,37.46756391,126.9081023,221,552.1020000000001,203.51999999999998,179.94899999999998,935.571
130,V02Q1940870,29.312781954887217,7773.3458646616555,0.30225563909774433,성동구,서울특별시 성동구 성수동1가 160-1,37.53810274,127.0468807,112,500.30800000000005,229.67999999999998,205.238,935.2260000000001
290,V02Q1940312,29.80944881889764,5642.629921259842,0.20551181102362212,양천구,서울특별시 양천구 신정동 957-16,37.52282125,126.85843529999998,269,572.489,192.0,169.29,933.779
54,V02Q1940946,29.19078014184398,11730.241134751775,0.4787234042553192,양천구,서울특별시 양천구 신월동 796,37.534444,126.8347904,37,464.49300000000005,247.67999999999998,220.286,932.4590000000001
230,V02Q1940528,29.502362204724392,6310.708661417323,0.23385826771653545,마포구,서울특별시 마포구 염리동 9-245,37.55530763,126.9470009,209,541.082,206.4,184.129,931.611
109,V02Q1940197,29.272173913043485,8362.304347826086,0.3243478260869566,영등포구,서울특별시 영등포구 신길동 268-35,37.50705874,126.9070917,91,487.08400000000006,234.72,209.0,930.8040000000001
126,V02Q1940493,29.29166666666667,7687.766666666666,0.3066666666666667,관악구,서울특별시 관악구 봉천동 622-1,37.48706543,126.9420381,108,494.247,230.64,203.98399999999998,928.8709999999999
324,V02Q1940219,29.872268907563033,5592.605042016807,0.19327731092436976,영등포구,서울특별시 영등포구 문래동1가 39-1,37.51165157,126.8957295,303,577.999,183.84,166.99099999999999,928.83
56,V02Q1940332,29.18278688524591,11112.663934426231,0.4713114754098361,은평구,서울특별시 은평구 신사동 4-16,37.59765044,126.9120209,39,461.73800000000006,247.2,219.03199999999998,927.97
38,V02Q1940456,29.1676923076923,11169.5,0.5361538461538462,마포구,서울특별시 마포구 용강동 381-10,37.54310205,126.9426921,23,454.02400000000006,251.04,219.24099999999999,924.3050000000001
234,V02Q1940466,29.481355932203392,6216.050847457627,0.2305084745762712,마포구,서울특별시 마포구 연남동 224-43,37.56339663,126.9270326,213,535.572,205.44,183.084,924.096
42,V02Q1940261,29.160504201680684,12368.151260504204,0.5084033613445379,성동구,서울특별시 성동구 성수동1가 13-219,37.54980884,127.0497702,26,451.26900000000006,250.32,221.331,922.9200000000001
337,V02Q1940125,29.819354838709675,5424.419354838709,0.18951612903225806,강서구,서울특별시 강서구 방화동 620-32,37.56267922,126.8086245,316,573.591,180.72,162.602,916.913
104,V02Q1940126,29.19841269841271,8449.119047619048,0.33571428571428585,강서구,서울특별시 강서구 방화동 318-2,37.57836214,126.8159088,86,467.24800000000005,235.92,210.045,913.213
263,V02Q1940710,29.45757575757576,6254.954545454545,0.2159090909090909,종로구,서울특별시 종로구 숭인동 55-2 숭인1동 주민센터 옥상,37.57784312,127.0156288,242,530.613,198.48,183.50199999999998,912.595
55,V02Q1940794,29.14130434782608,11409.862318840578,0.4731884057971015,양천구,서울특별시 양천구 목동 627-15,37.54573201,126.8677706,38,443.004,247.44,219.659,910.103
388,V02Q1940854,30.084671532846716,5223.408759124088,0.17372262773722627,마포구,서울특별시 마포구 망원동 403-2,37.5555906,126.905533,367,582.9580000000001,168.48,157.168,908.6060000000001
348,V02Q1940487,29.949180327868852,4904.680327868852,0.18606557377049185,서대문구,서울특별시 서대문구 북아현동 1002,37.55886948,126.9590045,327,581.3050000000001,178.07999999999998,147.763,907.148
190,V02Q1940225,29.305263157894736,6762.842105263158,0.2552631578947369,중랑구,서울특별시 중랑구 면목동 483-23,37.58597736,127.0883832,169,498.10400000000004,216.0,192.071,906.1750000000001
399,V02Q1940796,30.31751824817519,5104.649635036496,0.1708029197080291,종로구,서울특별시 종로구 숭인동 178-167,37.57484815,127.0199828,378,586.264,165.84,153.406,905.51
189,V02Q1940441,29.2837398373984,7000.504065040651,0.25609756097560976,성동구,서울특별시 성동구 행당동 134-9,37.55837233,127.0376945,168,491.492,216.23999999999998,196.66899999999998,904.401
284,V02Q1940652,29.492799999999992,5717.44,0.20800000000000005,관악구,서울특별시 관악구 신림동 1675-8,37.48370843,126.9025203,263,538.327,193.44,171.38,903.147
179,V02Q1940496,29.27890625000001,6878.9765625,0.259375,성동구,서울특별시 성동구 성수동2가 255-2,37.53877565,127.0597607,158,489.83900000000006,218.64,193.952,902.431
164,V02Q1940548,29.26290322580646,6924.153225806452,0.2693548387096775,관악구,서울특별시 관악구 봉천동 산 146-28,37.49124583,126.930777,143,483.778,222.23999999999998,195.206,901.224
79,V02Q1940186,29.142635658914738,9463.759689922479,0.3798449612403101,영등포구,서울특별시 영등포구 신길동 223-66,37.50914671,126.9109582,61,444.10600000000005,241.92,215.06099999999998,901.087
280,V02Q1940612,29.47840000000001,5747.104,0.2088,마포구,서울특별시 마포구 상암동 6-4,37.57807617,126.8951928,259,534.47,194.4,172.21599999999998,901.086
248,V02Q1940467,29.392499999999984,5982.575,0.2233333333333333,마포구,서울특별시 마포구 성산동 275-57,37.56348852,126.9091021,227,519.042,202.07999999999998,179.73999999999998,900.8620000000001
239,V02Q1940270,29.3895652173913,5958.973913043478,0.2286956521739131,성동구,서울특별시 성동구 성수동1가 8-5,37.54728698,127.0467402,218,516.8380000000001,204.23999999999998,178.904,899.9820000000001
60,V02Q1940494,29.11440000000001,10928.128,0.4480000000000002,서대문구,서울특별시 서대문구 홍제동 167-29,37.58744695,126.9445206,43,434.73900000000003,246.23999999999998,218.614,899.5930000000001
282,V02Q1940743,29.474809160305327,5664.076335877862,0.20839694656488555,성동구,서울특별시 성동구 성수동2가 574-9,37.53641965,127.056427,261,533.9190000000001,193.92,170.126,897.965
268,V02Q1940853,29.445669291338586,5751.03937007874,0.21338582677165366,강서구,서울특별시 강서구 화곡동 668-10,37.53521949,126.83985359999998,247,526.205,197.28,172.634,896.119
396,V02Q1940170,29.87190082644629,5006.578512396693,0.17190082644628096,영등포구,서울특별시 영등포구 당산동1가 32,37.52173841,126.8966833,375,577.4480000000001,166.56,150.898,894.9060000000001
201,V02Q1940389,29.27583333333333,6733.975,0.25249999999999995,동작구,서울특별시 동작구 신대방동 378-10,37.49774248,126.9238296,180,488.737,213.35999999999999,191.444,893.5409999999999
212,V02Q1940531,29.295199999999994,6536.896,0.2456,마포구,서울특별시 마포구 노고산동 31-123,37.55488942,126.9362371,191,495.34900000000005,210.72,187.05499999999998,893.124
114,V02Q1940199,29.153097345132746,8387.256637168142,0.3194690265486726,영등포구,서울특별시 영등포구 영등포동2가 222-1,37.52030939,126.9104414,96,448.514,233.51999999999998,209.41799999999998,891.452
431,V02Q1940451,30.201709401709408,4898.4358974358975,0.16324786324786328,마포구,서울특별시 마포구 성산동 192-19,37.56349354,126.9061479,410,584.6110000000001,158.16,146.927,889.6980000000001
379,V02Q1940773,29.699999999999992,5067.916030534351,0.17557251908396948,양천구,서울특별시 양천구 신정동 881-8,37.52856046,126.8591755,358,561.469,170.4,152.361,884.23
82,V02Q1940061,29.08918918918918,9334.648648648648,0.3738738738738737,구로구,서울특별시 구로구 구로동 614-3(임시 철거),37.50279963,126.8746217,64,427.576,241.2,214.225,883.0010000000001
385,V02Q1940621,29.717460317460308,4934.849206349207,0.1746031746031747,마포구,서울특별시 마포구 합정동 404,37.54674236,126.9142464,364,564.224,169.2,148.808,882.232
64,V02Q1940546,29.06106870229009,10429.42748091603,0.4251908396946565,중구,서울특별시 중구 신당동 161,37.56444847,127.0221103,47,417.658,245.28,217.569,880.507
87,V02Q1940949,29.072992700729923,9202.795620437957,0.3686131386861313,강북구,서울특별시 강북구 수유동 55-7,37.6303757,127.0226279,69,423.71900000000005,240.0,213.38899999999998,877.1080000000001
437,V02Q1940619,29.84031007751938,4784.651162790698,0.16201550387596902,마포구,서울특별시 마포구 신공덕동 8-3,37.54618548,126.9561104,416,575.7950000000001,156.72,143.165,875.6800000000001
28,V02Q1940735,29.032374100719434,9301.568345323742,0.6618705035971224,성동구,서울특별시 성동구 마장동 479-33,37.56840651,127.0336607,16,408.29100000000005,252.72,213.807,874.8180000000001
448,V02Q1940855,30.014685314685302,4641.1468531468545,0.15664335664335655,양천구,서울특별시 양천구 신정동 949-5,37.52455321,126.8557892,427,582.407,154.07999999999998,137.313,873.8000000000001
342,V02Q1940492,29.457024793388424,5475.636363636364,0.1884297520661157,양천구,서울특별시 양천구 신정동 1062,37.52818658,126.8601068,321,529.5110000000001,179.51999999999998,164.692,873.7230000000001
89,V02Q1940280,29.11764705882352,6881.504201680673,0.3672268907563026,광진구,서울특별시 광진구 중곡동 265-8,37.56197559,127.0850326,71,438.045,239.51999999999998,194.37,871.9350000000001
166,V02Q1940074,29.17241379310345,6873.7241379310335,0.2672413793103449,영등포구,서울특별시 영등포구 당산동1가 16-1,37.52031382,126.8969952,145,456.22800000000007,221.76,193.743,871.731
447,V02Q1940443,29.79583333333333,4861.175,0.15666666666666665,양천구,서울특별시 양천구 신정동 89-82,37.52068417,126.8738043,426,571.3870000000001,154.32,145.255,870.9620000000001
423,V02Q1940136,29.640707964601773,5179.345132743363,0.16460176991150438,구로구,서울특별시 구로구 구로동 733-28,37.48946749,126.8848394,402,553.755,160.07999999999998,156.332,870.167
84,V02Q1940296,29.0511811023622,9005.354330708662,0.3724409448818897,동작구,서울특별시 동작구 대방동 341-1,37.51196987,126.9263022,66,413.80100000000004,240.72,212.553,867.0740000000001
216,V02Q1940861,29.193233082706765,6658.7218045112795,0.24436090225563914,양천구,서울특별시 양천구 신정동 842-1,37.50908951,126.8668465,195,466.146,209.76,189.981,865.887
259,V02Q1940174,29.259166666666665,6156.8166666666675,0.21749999999999994,영등포구,서울특별시 영등포구 양평동1가 251-1,37.52416526,126.8870815,238,482.12500000000006,199.44,182.248,863.8130000000001
406,V02Q1940525,29.501599999999996,5265.831999999999,0.16960000000000006,용산구,서울특별시 용산구 효창동 5-713,37.54226566,126.9607602,385,540.5310000000001,164.16,158.631,863.322
185,V02Q1940756,29.162676056338025,6803.091549295775,0.2570422535211268,동작구,서울특별시 동작구 상도동 248-16,37.50007359,126.9324381,164,452.37100000000004,217.2,193.325,862.896
485,V02Q1940886,30.1810606060606,4492.977272727273,0.14772727272727268,종로구,서울특별시 종로구 삼청동 35-112,37.58243882,126.9821042,463,584.0600000000001,145.44,132.297,861.797
489,V02Q1940486,29.826400000000003,4695.952,0.14719999999999994,금천구,서울특별시 금천구 독산동 1002-5,37.46670274,126.890697,467,574.6930000000001,144.48,139.194,858.3670000000001
354,V02Q1940167,29.439516129032267,5169.717741935484,0.18387096774193545,강서구,서울특별시 강서구 화곡동 1089-17,37.54481973,126.8358435,333,525.654,176.64,155.078,857.372
258,V02Q1940364,29.256779661016946,5810.033898305085,0.2177966101694916,양천구,서울특별시 양천구 신정동 323-1,37.5166462,126.8628645,237,481.574,199.68,174.30599999999998,855.56
198,V02Q1940822,29.15522388059702,6731.044776119403,0.2529850746268656,종로구,서울특별시 종로구 무악동 69-3,37.57542384,126.9577806,177,449.61600000000004,214.07999999999998,191.23499999999999,854.931
158,V02Q1940066,29.16488549618321,5925.259541984733,0.27328244274809155,강서구,서울특별시 강서구 가양동 36-3,37.56721931,126.8475165,138,452.922,223.44,177.65,854.0120000000001
321,V02Q1940326,29.32605042016807,5462.781512605042,0.19579831932773112,은평구,서울특별시 은평구 대조동 207-9,37.61408672,126.91983700000002,300,503.06300000000005,184.56,164.065,851.6880000000001
434,V02Q1940564,29.616260162601623,4763.544715447155,0.1626016260162602,중구,서울특별시 중구 장충동1가 49-9,37.56085957,127.0085631,413,551.0,157.44,142.74699999999999,851.187
162,V02Q1940631,29.095238095238106,7129.277777777777,0.27063492063492073,마포구,서울특별시 마포구 아현동 676,37.55647074,126.9485265,141,428.127,222.72,198.968,849.8149999999999
468,V02Q1940539,29.7381679389313,4489.5496183206105,0.1511450381679389,종로구,서울특별시 종로구 이화동 82-4,37.57692043,127.0045137,446,568.081,149.51999999999998,131.46099999999998,849.062
390,V02Q1940464,29.45726495726496,4992.45299145299,0.17350427350427347,양천구,서울특별시 양천구 신월동 977,37.52032974,126.835739,369,530.062,168.0,150.48,848.542
347,V02Q1940862,29.332575757575754,5349.492424242424,0.18636363636363645,구로구,서울특별시 구로구 구로동 742-80,37.48887854,126.8851157,326,505.26700000000005,178.32,160.721,844.308
85,V02Q1940140,28.967256637168145,9201.469026548672,0.3690265486725665,구로구,서울특별시 구로구 고척동 291-1,37.50248471,126.8510405,67,389.00600000000003,240.48,213.17999999999998,842.6659999999999
270,V02Q1940639,29.213740458015252,5755.465648854962,0.21297709923664115,성동구,서울특별시 성동구 응봉동 193-111,37.54960389,127.0329741,249,471.65600000000006,196.79999999999998,172.843,841.299
191,V02Q1940722,29.111940298507466,6682.253731343284,0.25447761194029844,마포구,서울특별시 마포구 서교동 350-1,37.55482867,126.92596609999998,170,433.63700000000006,215.76,190.608,840.0050000000001
146,V02Q1940667,29.04609375,7347.40625,0.284375,관악구,서울특별시 관악구 봉천동 728-1,37.49265835,126.9269739,126,411.59700000000004,226.32,201.058,838.975
255,V02Q1940171,29.18145161290323,5901.491935483871,0.2185483870967742,영등포구,서울특별시 영등포구 당산동3가 566,37.52413002,126.8986049,234,460.08500000000004,200.4,177.023,837.508
341,V02Q1940609,29.30151515151515,5319.977272727273,0.18863636363636369,마포구,서울특별시 마포구 서교동 473-15,37.55627539,126.9122386,320,497.00200000000007,179.76,160.094,836.856
295,V02Q1940318,29.243548387096766,5598.701612903225,0.2040322580645162,동작구,서울특별시 동작구 노량진동 302-45,37.50809775,126.9375878,274,478.26800000000003,190.79999999999998,167.409,836.477
63,V02Q1940942,28.913281249999994,10057.046875,0.4265625,양천구,서울특별시 양천구 신월동 805,37.53246263,126.8330763,46,374.129,245.51999999999998,215.897,835.546
352,V02Q1940951,29.309923664122138,5263.7480916030545,0.18396946564885505,양천구,서울특별시 양천구 신월동 802,37.53124609,126.8361285,331,499.75700000000006,177.12,158.213,835.09
244,V02Q1940367,29.15126050420168,6226.764705882353,0.2252100840336135,성동구,서울특별시 성동구 금호동2가 223-1,37.55439478,127.0200998,223,447.963,203.04,183.293,834.296
408,V02Q1940742,29.49037037037038,4513.555555555556,0.16888888888888898,송파구,서울특별시 송파구 석촌동 328-3,37.50104027,127.1097395,387,537.225,163.68,132.924,833.829
182,V02Q1940184,29.078195488721803,6672.894736842104,0.2578947368421053,영등포구,서울특별시 영등포구 영등포동 646-18,37.51419781,126.909457,161,425.372,217.92,190.399,833.691
107,V02Q1940273,28.974015748031487,8216.181102362205,0.3259842519685041,강남구,서울특별시 강남구 논현동 107-44,37.51751212,127.0371336,89,390.108,235.2,207.95499999999998,833.2629999999999
218,V02Q1940302,29.072268907563032,7326.394957983193,0.24285714285714294,중구,서울특별시 중구 순화동 207-6,37.5595092,126.9718932,197,422.617,209.28,200.64,832.537
496,V02Q1940567,29.6608,4500.52,0.14479999999999998,중구,서울특별시 중구 산림동 56-2,37.56805562,126.99650990000002,474,557.061,142.79999999999998,132.506,832.367
99,V02Q1940611,28.96484375,8031.96875,0.3460937499999999,마포구,서울특별시 마포구 합정동 198-48,37.54552807,126.9147568,81,388.45500000000004,237.12,206.701,832.2760000000001
222,V02Q1940513,29.116129032258065,6425.685483870968,0.2411290322580646,송파구,서울특별시 송파구 마천동 211-73,37.49417976,127.1549914,201,435.841,208.32,185.17399999999998,829.335
482,V02Q1940871,29.605343511450386,4508.465648854962,0.14809160305343508,성동구,서울특별시 성동구 마장동 450-65,37.57114665,127.037106,460,549.3470000000001,146.16,132.715,828.2220000000001
144,V02Q1940534,29.020472440944875,7037.96062992126,0.2866141732283465,마포구,서울특별시 마포구 노고산동 1-39,37.55572217,126.9402897,124,403.33200000000005,226.79999999999998,197.923,828.0550000000001
533,V02Q1940393,29.82478632478632,4080.059829059829,0.1341880341880341,광진구,서울특별시 광진구 자양동 520-2,37.53348826,127.0730061,511,574.142,133.92,119.75699999999999,827.819
449,V02Q1940590,29.482258064516145,4657.661290322581,0.1564516129032258,성동구,서울특별시 성동구 사근동 190-2,37.56072357,127.0484251,428,536.123,153.84,137.522,827.4850000000001
160,V02Q1940569,29.024409448818894,7247.251968503937,0.27165354330708663,서대문구,서울특별시 서대문구 남가좌동 102-7,37.56942137,126.9167554,140,404.434,222.95999999999998,200.013,827.407
339,V02Q1940793,29.24923076923077,5455.7,0.18923076923076929,송파구,서울특별시 송파구 거여동 36-15,37.49345737,127.146171,318,480.47200000000004,180.23999999999998,163.647,824.3589999999999
484,V02Q1940259,29.52845528455285,4524.162601626016,0.1479674796747967,양천구,서울특별시 양천구 목동 813,37.5339278,126.8637928,462,544.9390000000001,145.68,133.34199999999998,823.9610000000001
181,V02Q1940292,29.17812499999999,4879.2734375,0.2585937500000001,동작구,서울특별시 동작구 사당동 72-11,37.49084809,126.9819441,160,458.432,218.16,146.09099999999998,822.683
78,V02Q1940698,28.88153846153847,9326.076923076924,0.3838461538461537,용산구,서울특별시 용산구 한남동 684-85,37.53462672,127.00073590000002,60,366.415,242.16,214.016,822.591
261,V02Q1940346,29.155,5814.1,0.2166666666666667,강서구,서울특별시 강서구 화곡동 361-1,37.53438349,126.8379965,240,449.06500000000005,198.95999999999998,174.515,822.5400000000001
301,V02Q1940078,29.210434782608694,5448.217391304348,0.20173913043478264,강서구,서울특별시 강서구 화곡동 1064,37.54254621,126.8403227,280,470.00300000000004,189.35999999999999,163.01999999999998,822.383
401,V02Q1940798,29.322962962962972,5110.755555555556,0.17037037037037034,강동구,서울특별시 강동구 천호동 76-2,37.54503786,127.136812,380,502.51200000000006,165.35999999999999,153.61499999999998,821.4870000000001
411,V02Q1940732,29.396875,4668.9453125,0.1679687500000001,양천구,서울특별시 양천구 신월동 823,37.52665506,126.8369618,390,520.144,162.96,138.149,821.253
136,V02Q1940331,28.957264957264947,7650.0,0.2957264957264958,도봉구,서울특별시 도봉구 쌍문동 143-52,37.65050658,127.0334227,117,386.802,228.48,203.357,818.639
409,V02Q1940610,29.339534883720926,4899.348837209303,0.1682170542635659,마포구,서울특별시 마포구 망원동 453-1,37.55614009,126.8965844,388,507.47100000000006,163.44,147.345,818.2560000000001
463,V02Q1940626,29.4546875,4685.0703125,0.15234374999999994,마포구,서울특별시 마포구 서교동 365-29,37.55065466,126.9211923,441,528.96,150.72,138.567,818.2470000000001
172,V02Q1940266,29.01500000000002,6901.258333333332,0.2625,노원구,서울특별시 노원구 공릉동 499-1,37.62510077,127.0734884,151,401.12800000000004,220.32,194.57899999999998,816.027
249,V02Q1940121,29.123214285714266,5788.714285714284,0.22321428571428573,영등포구,서울특별시 영등포구 대림동 738-14,37.49694974,126.89771709999998,228,439.14700000000005,201.84,173.47,814.4570000000001
577,V02Q1940604,29.93779527559055,3802.275590551181,0.12362204724409448,중구,서울특별시 중구 다동 60-2,37.56783722,126.9809414,555,580.754,123.36,108.67999999999999,812.794
296,V02Q1940628,29.14843750000001,5851.640625,0.20312500000000006,성동구,서울특별시 성동구 마장동 765-1,37.56835683,127.0405289,275,445.759,190.56,175.97799999999998,812.2969999999999
48,V02Q1940834,28.802919708029226,11940.430656934306,0.4970802919708029,동작구,서울특별시 동작구 사당동 300-8,37.48098219,126.971649,31,342.17100000000005,249.12,220.495,811.7860000000001
127,V02Q1940706,28.924409448818892,7886.9448818897645,0.30472440944881884,송파구,서울특별시 송파구 송파동 172,37.50204913,127.1171108,109,375.78200000000004,230.39999999999998,205.447,811.629
70,V02Q1940828,28.928461538461537,6708.284615384616,0.4192307692307693,성동구,서울특별시 성동구 행당동 1-105,37.56133205,127.0396888,53,376.884,243.84,190.81699999999998,811.541
332,V02Q1940561,29.19923076923077,5350.046153846154,0.19076923076923086,관악구,서울특별시 관악구 신림동 505,37.48519319,126.918737,311,467.79900000000004,181.92,160.93,810.6490000000001
524,V02Q1940868,29.64609375000002,4079.546875,0.13671874999999994,성동구,서울특별시 성동구 용답동 28-7,37.56051284,127.0528535,502,554.306,136.07999999999998,119.548,809.934
343,V02Q1940574,29.22558139534885,5254.054263565891,0.1883720930232559,용산구,서울특별시 용산구 원효로2가 3-5,37.53718194,126.9656951,322,472.75800000000004,179.28,157.58599999999998,809.624
571,V02Q1940524,29.76746031746031,3901.7460317460323,0.12460317460317455,용산구,서울특별시 용산구 서계동 222-11,37.55435463,126.9681312,549,570.836,124.8,113.487,809.1229999999999
311,V02Q1940503,29.17786885245904,5455.836065573771,0.19836065573770492,성동구,서울특별시 성동구 송정동 72-104,37.55401067,127.0688982,290,457.88100000000003,186.95999999999998,163.856,808.697
139,V02Q1940947,28.93043478260871,7339.391304347826,0.289855072463768,동작구,서울특별시 동작구 상도동 518-7,37.4990258,126.9520123,119,377.98600000000005,228.0,200.849,806.835
508,V02Q1940858,29.52814814814815,4143.644444444444,0.13925925925925922,구로구,서울특별시 구로구 구로동 762,37.48821616,126.8851381,486,544.388,139.92,121.429,805.737
377,V02Q1940770,29.232558139534877,5218.643410852713,0.17596899224806198,강동구,서울특별시 강동구 암사동 496-25,37.5498763,127.1294778,356,477.71700000000004,171.12,156.75,805.587
529,V02Q1940778,29.594852941176477,4152.875,0.1352941176470588,양천구,서울특별시 양천구 목동 404-21,37.52259074,126.8755481,507,548.245,134.88,122.056,805.181
539,V02Q1940426,29.609016393442623,4148.5,0.13278688524590168,마포구,서울특별시 마포구 성산동 165-34,37.56802912,126.9073195,517,550.4490000000001,132.48,121.847,804.7760000000001
369,V02Q1940627,29.201562500000005,5334.4140625,0.178125,성동구,서울특별시 성동구 송정동 73-879,37.55181934,127.06737959999998,348,468.901,173.04,160.512,802.453
264,V02Q1940715,29.105035971223,5765.129496402878,0.2151079136690648,양천구,서울특별시 양천구 신정동 1284-1,37.51259339,126.8376519,243,430.88200000000006,198.23999999999998,173.052,802.1740000000001
331,V02Q1940509,29.17416666666666,5405.475,0.19166666666666665,서대문구,서울특별시 서대문구 홍제동 136-41,37.58674357,126.9473291,310,457.33000000000004,182.16,162.393,801.883
492,V02Q1940527,29.45409836065574,4370.745901639344,0.1467213114754098,중구,서울특별시 중구 황학동 2473-38,37.56898584,127.0218832,470,527.8580000000001,143.76,127.908,799.5260000000001
631,V02Q1940817,30.39481481481483,3588.911111111111,0.11037037037037033,종로구,서울특별시 종로구 명륜3가 53-2,37.5844799,126.9969232,609,587.917,110.39999999999999,100.738,799.0550000000001
357,V02Q1940077,29.189285714285717,5263.901785714285,0.1821428571428572,영등포구,서울특별시 영등포구 대림동 1059-49,37.49095208,126.8965606,336,463.94200000000006,175.92,158.422,798.2840000000001
291,V02Q1940178,29.114285714285703,5745.339285714284,0.20535714285714288,강남구,서울특별시 강남구 신사동 667-6,37.52105313,127.0194561,270,434.18800000000005,191.76,172.007,797.9550000000002
330,V02Q1940119,29.161946902654858,5455.557522123894,0.1920353982300885,동대문구,서울특별시 동대문구 장안동 338-1,37.57014257,127.072957,309,451.82000000000005,182.4,163.438,797.658
591,V02Q1940720,29.818796992481204,3682.9774436090224,0.11954887218045104,종로구,서울특별시 종로구 창신동 583-3,37.57443226,127.0108889,569,573.0400000000001,120.0,103.664,796.7040000000001
509,V02Q1940405,29.64999999999999,3559.15,0.1391666666666667,금천구,서울특별시 금천구 독산동 330-40,37.46857802,126.8925761,487,555.9590000000001,139.68,99.693,795.3320000000001
345,V02Q1940576,29.1734375,5293.6953125,0.18671875,마포구,서울특별시 마포구 상암동 1296-5,37.57717666,126.896669,324,456.77900000000005,178.79999999999998,159.676,795.2550000000001
113,V02Q1940175,28.838333333333324,8076.241666666668,0.32,강남구,서울특별시 강남구 청담동 139-15,37.52778814,127.0467992,95,353.742,233.76,207.328,794.8299999999999
480,V02Q1940198,29.362831858407073,4546.283185840708,0.14867256637168133,영등포구,서울특별시 영등포구 신길동 2798,37.50001275,126.9108075,458,511.32800000000003,146.64,134.596,792.5640000000001
546,V02Q1940869,29.492424242424235,4191.204545454545,0.12954545454545452,양천구,서울특별시 양천구 신월동 852,37.52535041,126.837774,524,537.7760000000001,130.79999999999998,123.30999999999999,791.886
197,V02Q1940262,28.95083333333334,6796.925,0.2533333333333333,관악구,서울특별시 관악구 봉천동 872-23,37.48342803,126.9494608,176,384.047,214.32,193.11599999999999,791.483
420,V02Q1940392,29.244537815126037,4985.378151260505,0.16554621848739492,광진구,서울특별시 광진구 구의동 217-16,37.53828664,127.0923968,399,478.819,160.79999999999998,150.06199999999998,789.681
1,V02Q1940351,29.26491228070176,661.8333333333334,2.800000000000006,성북구,서울특별시 성북구 성북동1가 120-1,37.59105394,127.00300690000002,2,484.88000000000005,256.08,48.488,789.4480000000001
24,V02Q1940081,28.71801801801802,15477.333333333336,0.7117117117117117,동대문구,서울특별시 동대문구 답십리동 1004-10,37.57132426,127.0510025,13,311.315,253.44,222.79399999999998,787.549
275,V02Q1940500,29.059836065573784,5829.950819672132,0.21147540983606555,중구,서울특별시 중구 신당동 52-7,37.56155266,127.0187487,254,416.55600000000004,195.6,175.142,787.298
507,V02Q1940251,29.38992248062016,4413.728682170543,0.13953488372093026,영등포구,서울특별시 영등포구 양평동2가 12-1,37.52266609,126.8829153,485,517.389,140.16,128.953,786.502
306,V02Q1940654,29.071538461538463,5894.792307692308,0.20000000000000004,양천구,서울특별시 양천구 목동 900-9,37.54304643,126.8836212,285,421.51500000000004,188.16,176.814,786.489
269,V02Q1940385,29.05447154471546,5794.861788617885,0.21300813008130087,서대문구,서울특별시 서대문구 북가좌동 408,37.57780973,126.90528559999998,248,415.454,197.04,173.679,786.173
552,V02Q1940481,29.49677419354839,4012.0161290322585,0.12822580645161286,양천구,서울특별시 양천구 신정동 1099,37.52408281,126.8546531,530,538.878,129.35999999999999,117.667,785.9050000000001
586,V02Q1940874,29.556028368794326,3998.7517730496447,0.1212765957446808,양천구,서울특별시 양천구 신정동 1208-1,37.51933652,126.8500062,564,546.5920000000001,121.19999999999999,117.03999999999999,784.8320000000001
101,V02Q1940357,28.797619047619047,8441.650793650793,0.34285714285714297,동작구,서울특별시 동작구 흑석동 86-201,37.50376595,126.9609584,83,338.314,236.64,209.83599999999998,784.79
425,V02Q1940680,29.232089552238808,4909.276119402985,0.16417910447761191,관악구,서울특별시 관악구 봉천동 970-21,37.48932572,126.928863,404,477.16600000000005,159.6,147.97199999999998,784.738
421,V02Q1940749,29.264661654135338,4694.87969924812,0.1646616541353384,양천구,서울특별시 양천구 신월동 1047,37.52524025,126.84225659999998,400,484.32900000000006,160.56,138.98499999999999,783.8740000000001
71,V02Q1940071,28.76016949152543,10098.36440677966,0.41186440677966096,양천구,서울특별시 양천구 신월동 43-4,37.53623879,126.8242707,54,323.437,243.6,216.315,783.3520000000001
554,V02Q1940595,29.49769230769232,3881.7,0.12769230769230766,용산구,서울특별시 용산구 산천동 82-1,37.53439873,126.95138,532,539.4290000000001,128.88,113.06899999999999,781.378
553,V02Q1940319,29.521600000000007,3794.96,0.12799999999999992,동작구,서울특별시 동작구 상도동 188-42,37.50119264,126.9369607,531,543.837,129.12,108.053,781.01
608,V02Q1940052,29.738793103448266,3463.5689655172414,0.11637931034482756,구로구,서울특별시 구로구 구로동 777-34,37.48718079,126.8896263,586,568.6320000000001,115.92,96.14,780.692
612,V02Q1940448,29.702564102564093,3677.316239316239,0.11538461538461532,강북구,서울특별시 강북구 수유동 54-5,37.63075938,127.0235503,590,562.0200000000001,114.96,103.246,780.2260000000001
278,V02Q1940188,29.02230769230768,6011.3,0.2092307692307692,영등포구,서울특별시 영등포구 신길동 341-1,37.50213873,126.9051679,257,403.88300000000004,194.88,180.367,779.13
627,V02Q1940111,29.713114754098353,3588.852459016393,0.11229508196721304,구로구,서울특별시 구로구 신도림동 292-212,37.50929949,126.8783801,605,563.673,111.36,100.529,775.562
389,V02Q1940723,29.16589147286821,5121.4728682170535,0.1736434108527132,마포구,서울특별시 마포구 서교동 359,37.55227897,126.9235272,368,453.473,168.23999999999998,153.82399999999998,775.5369999999999
293,V02Q1940607,29.03281250000002,5833.59375,0.2046875,성동구,서울특별시 성동구 행당동 150-2,37.55887111,127.0385527,272,408.84200000000004,191.28,175.351,775.4730000000001
513,V02Q1940222,29.35478260869565,4318.739130434783,0.13826086956521735,영등포구,서울특별시 영등포구 영등포동3가 1-7,37.51828647,126.9105648,491,509.124,138.72,126.654,774.498
187,V02Q1940846,28.874436090225572,6768.526315789472,0.25639097744360906,도봉구,서울특별시 도봉구 창동 542-1,37.63739638,127.0390037,166,364.76200000000006,216.72,192.28,773.7620000000001
217,V02Q1940755,28.88723404255317,6944.624113475177,0.2432624113475177,노원구,서울특별시 노원구 상계동 389-483,37.65885611,127.0685008,196,368.06800000000004,209.51999999999998,195.833,773.4209999999999
504,V02Q1940079,29.314782608695666,4452.66956521739,0.14086956521739127,강남구,서울특별시 강남구 일원동 707,37.49410245,127.0822094,482,500.85900000000004,140.64,130.207,771.706
550,V02Q1940127,29.41250000000001,4030.9,0.12833333333333327,영등포구,서울특별시 영등포구 당산동6가 337-1,37.53620112,126.9012217,528,522.3480000000001,129.84,118.71199999999999,770.9000000000001
653,V02Q1940594,29.809160305343514,3356.931297709924,0.10381679389312974,성동구,서울특별시 성동구 성수동2가 299-33,37.54923179,127.05387749999998,631,571.9380000000001,105.11999999999999,93.423,770.4810000000001
651,V02Q1940711,29.753488372093013,3430.697674418605,0.10465116279069764,마포구,서울특별시 마포구 서교동 485-23,37.553799,126.9123651,629,569.734,105.6,95.095,770.4290000000001
500,V02Q1940430,29.30769230769231,4414.769230769231,0.14188034188034182,강동구,서울특별시 강동구 성내동 40-21,37.5358158,127.12468590000002,478,498.65500000000003,141.84,129.162,769.657
292,V02Q1940250,29.029824561403505,5701.701754385966,0.2052631578947369,중랑구,서울시 중랑구 면목동 142-35,37.589051,127.0808924,271,406.63800000000003,191.51999999999998,171.171,769.329
176,V02Q1940955,28.84230769230768,6941.36153846154,0.2600000000000001,서초구,서울특별시 서초구 반포동 4-15,37.50458059,126.99450120000002,155,354.293,219.35999999999999,195.624,769.277
243,V02Q1940176,28.93760683760685,6302.512820512819,0.2256410256410256,영등포구,서울특별시 영등포구 신길동 1200,37.50618001,126.9214383,222,380.19000000000005,203.28,183.92,767.39
355,V02Q1940758,29.11691176470588,5153.639705882353,0.18382352941176472,성동구,서울특별시 성동구 행당동 299-18,37.56011949,127.0316064,334,436.39200000000005,176.4,154.242,767.034
173,V02Q1940485,28.82764227642276,7015.504065040651,0.2617886178861789,은평구,서울특별시 은평구 응암동 91-15,37.59923312,126.9163873,152,349.334,220.07999999999998,197.505,766.919
522,V02Q1940459,29.352032520325213,4091.162601626016,0.1373983739837398,마포구,서울특별시 마포구 성산동 54-16,37.56451061,126.9116219,500,508.57300000000004,136.56,120.80199999999999,765.9350000000001
428,V02Q1940629,29.169291338582674,4985.685039370079,0.16377952755905514,마포구,서울특별시 마포구 아현동 727-8,37.55689472,126.9615926,407,454.57500000000005,158.88,150.271,763.726
111,V02Q1940535,28.767910447761192,7710.522388059701,0.3223880597014926,마포구,서울특별시 마포구 신수동 450-3,37.55049329,126.9362759,93,325.09000000000003,234.23999999999998,204.19299999999998,763.523
499,V02Q1940309,29.288596491228073,4351.175438596491,0.14298245614035085,강남구,서울특별시 강남구 역삼동 782-9,37.49373877,127.0423742,477,493.696,142.07999999999998,127.49,763.2660000000001
163,V02Q1940811,28.80703124999999,7012.8046875,0.2703125000000001,송파구,서울특별시 송파구 풍납동 455,37.52727312,127.1162491,142,342.72200000000004,222.48,197.296,762.498
467,V02Q1940453,29.230701754385986,4605.026315789473,0.15175438596491225,양천구,서울특별시 양천구 목동 904,37.53263479,126.8714464,445,474.96200000000005,149.76,136.059,760.781
257,V02Q1940284,28.940517241379318,5934.810344827585,0.2181034482758621,성북구,서울특별시 성북구 삼선동4가 300-1,37.58968413,127.0129202,236,381.29200000000003,199.92,178.277,759.489
285,V02Q1940648,28.95503875968991,6046.565891472867,0.2077519379844961,용산구,서울특별시 용산구 이태원동 15-24,37.53229458,126.9959865,264,385.70000000000005,193.2,180.576,759.4760000000001
115,V02Q1940841,28.73956834532373,8302.280575539568,0.31942446043165457,종로구,서울특별시 종로구 효제동 173-2,37.57203734,127.0050414,97,317.37600000000003,233.28,208.582,759.238
407,V02Q1940495,29.124218750000008,5171.6328125,0.16953125000000002,금천구,서울특별시 금천구 독산동 870-2,37.46145538,126.8900188,386,439.69800000000004,163.92,155.49599999999998,759.114
490,V02Q1940343,29.283760683760683,4169.290598290599,0.147008547008547,은평구,서울특별시 은평구 갈현동 451-15,37.6187081,126.9165915,468,492.04300000000006,144.23999999999998,122.47399999999999,758.7570000000001
105,V02Q1940865,28.72575757575757,8236.204545454546,0.3333333333333333,양천구,서울특별시 양천구 목동 525-2,37.54645142,126.872103,87,314.62100000000004,235.67999999999998,208.164,758.465
569,V02Q1940231,29.3921875,3904.7265625,0.12499999999999994,중랑구,서울특별시 중랑구 상봉동 130-4,37.59267959,127.07477790000002,547,518.4910000000001,125.28,114.323,758.094
112,V02Q1940123,28.729268292682942,8156.471544715447,0.3211382113821139,강남구,서울특별시 강남구 대치동 1028-1,37.49489912,127.0618427,94,315.723,234.0,207.74599999999998,757.4689999999999
246,V02Q1940690,28.900775193798452,6131.945736434109,0.22403100775193804,금천구,서울특별시 금천구 시흥동 1001-5,37.44551467,126.9041242,225,372.47600000000006,202.56,182.039,757.075
327,V02Q1940866,29.034351145038165,5465.870229007634,0.1923664122137405,성동구,서울특별시 성동구 행당동 317-18,37.5580386,127.0296494,306,409.39300000000003,183.12,164.274,756.787
328,V02Q1940725,29.024615384615377,5624.9,0.1923076923076923,관악구,서울특별시 관악구 신림동 1676-17,37.47982135,126.9023653,307,404.985,182.88,168.87199999999999,756.737
699,V02Q1940483,29.76065573770493,3274.983606557377,0.09180327868852453,금천구,서울특별시 금천구 독산동 378-451,37.46309492,126.9039678,677,570.2850000000001,94.08,91.124,755.4890000000001
325,V02Q1940818,29.328148148148127,2226.8296296296303,0.19259259259259254,종로구,서울특별시 종로구 창신동 401-3,37.57074131,127.0163741,304,504.165,183.6,66.044,753.809
254,V02Q1940287,28.93032786885247,5822.11475409836,0.21885245901639347,양천구,서울특별시 양천구 신월동 197-35,37.53139333,126.8300752,233,377.43500000000006,200.64,174.933,753.008
349,V02Q1940374,29.052892561983466,5190.909090909091,0.1859504132231405,금천구,서울특별시 금천구 독산동 1080-4,37.46431817,126.8972355,328,414.903,177.84,156.541,749.2840000000001
46,V02Q1940953,28.63565891472868,12218.131782945735,0.5007751937984498,강남구,서울특별시 강남구 개포동 186-19,37.48903041,127.0678834,29,278.255,249.6,221.12199999999999,748.977
298,V02Q1940825,28.97651515151515,5598.219696969697,0.20303030303030306,송파구,서울특별시 송파구 풍납동 바람드리길52,37.53825651,127.1219514,277,390.65900000000005,190.07999999999998,167.2,747.9390000000001
404,V02Q1940864,29.12803030303029,4745.780303030303,0.1696969696969698,양천구,서울특별시 양천구 목동 916-2,37.52576762,126.8753744,383,441.35100000000006,164.64,141.911,747.902
413,V02Q1940105,29.12686567164181,4834.485074626866,0.167910447761194,강서구,서울특별시 강서구 방화동 281-20,37.57287575,126.8151904,392,440.8,162.48,144.41899999999998,747.699
186,V02Q1940116,28.796396396396407,6781.909909909909,0.2567567567567568,동대문구,서울특별시 동대문구 신설동 92-34,37.57554443,127.023874,165,337.76300000000003,216.95999999999998,192.489,747.212
235,V02Q1940552,28.85327868852459,6173.6475409836075,0.23032786885245896,관악구,서울특별시 관악구 신림동 808-169,37.47639433,126.9156696,214,358.701,205.2,182.875,746.7760000000001
200,V02Q1940547,28.812598425196853,6575.7007874015735,0.252755905511811,관악구,서울특별시 관악구 봉천동 1693-42,37.47779149,126.95529740000002,179,344.92600000000004,213.6,187.891,746.417
68,V02Q1940875,28.652413793103445,10186.903448275862,0.4199999999999999,종로구,서울특별시 종로구 창신동 619-2,37.57852949,127.009068,51,284.867,244.32,216.733,745.9200000000001
479,V02Q1940282,29.18318584070796,4619.424778761062,0.14867256637168136,서초구,서울특별시 서초구 잠원동 71-22,37.5124908,127.00587620000002,457,462.28900000000004,146.88,136.686,745.8550000000001
108,V02Q1940571,28.68968253968255,8416.714285714286,0.3246031746031746,용산구,서울특별시 용산구 후암동 167-2,37.54650411,126.9752365,90,300.846,234.95999999999998,209.62699999999998,745.433
224,V02Q1940164,28.831617647058806,6365.941176470588,0.2389705882352941,강남구,서울특별시 강남구 개포동 186-19,37.48858687,127.0679878,203,351.538,207.84,184.756,744.134
319,V02Q1940301,29.00000000000001,5350.9586776859505,0.19586776859504132,동작구,서울특별시 동작구 사당동 91-11,37.48911821,126.98057040000002,298,397.82200000000006,185.04,161.13899999999998,744.0010000000001
103,V02Q1940310,28.678151260504205,8605.403361344537,0.3378151260504201,서초구,서울특별시 서초구 방배동 462-13,37.47984859,126.9854018,85,296.98900000000003,236.16,210.672,743.821
338,V02Q1940661,29.007633587786245,5267.404580152672,0.18931297709923667,마포구,서울특별시 마포구 대흥동 7-6,37.55231328,126.9466013,317,400.57700000000006,180.48,158.84,739.897
429,V02Q1940613,29.11937984496125,4753.15503875969,0.1635658914728682,마포구,서울특별시 마포구 포은로 6길 27,37.55596303,126.9065546,408,438.59600000000006,158.64,142.12,739.3560000000001
446,V02Q1940205,29.145185185185188,4702.911111111112,0.1577777777777778,도봉구,서울특별시 도봉구 쌍문동 29-3,37.65946582,127.0379952,425,444.65700000000004,154.56,139.612,738.8290000000001
391,V02Q1940209,29.065873015873,5031.833333333333,0.17301587301587298,광진구,서울특별시 광진구 중곡동 452-1,37.55902487,127.0901207,370,419.31100000000004,167.76,151.73399999999998,738.8050000000001
67,V02Q1940665,28.63076923076923,10347.930769230768,0.4200000000000001,도봉구,서울특별시 도봉구 창동 445-22,37.64068341,127.0354904,50,276.05100000000004,244.56,217.35999999999999,737.9710000000001
542,V02Q1940784,29.276515151515163,3979.39393939394,0.13181818181818178,송파구,서울특별시 송파구 가락동 155-7,37.49824776,127.1262966,520,489.28800000000007,131.76,116.622,737.67
761,V02Q1940562,30.35196850393702,2492.393700787401,0.06692913385826771,중구,서울특별시 중구 을지로3가 320-34,37.56554217,126.9910351,739,586.815,79.2,71.26899999999999,737.2840000000001
393,V02Q1940256,29.037795275590547,5271.204724409449,0.17244094488188982,영등포구,서울특별시 영등포구 양평동6가 98-1,37.54368812,126.8877377,372,410.49500000000006,167.28,159.049,736.8240000000001
597,V02Q1940399,29.379365079365087,3692.452380952381,0.1182539682539682,서초구,서울특별시 서초구 서초동 1740-10,37.49139149,127.0127403,575,514.0830000000001,118.56,104.082,736.725
625,V02Q1940428,29.36749999999999,3858.0333333333333,0.11333333333333327,금천구,서울특별시 금천구 가산동 152-28,37.47580636,126.8929078,603,511.879,112.08,111.815,735.7740000000001
574,V02Q1940288,29.303361344537805,3903.554621848739,0.1243697478991596,마포구,서울특별시 마포구 현석동 106-28,37.54395677,126.9341213,552,497.55300000000005,124.08,113.905,735.538
20,V02Q1940880,28.572388059701506,18380.410447761195,0.8156716417910447,금천구,서울특별시 금천구 시흥동 832-14,37.45237475,126.908304,10,257.868,254.16,223.212,735.24
336,V02Q1940454,28.976612903225824,5386.935483870968,0.18951612903225812,성동구,서울특별시 성동구 용답동 239-1,37.56101387,127.0590525,315,391.21000000000004,180.95999999999998,161.975,734.1450000000001
209,V02Q1940122,28.776984126984118,6814.015873015873,0.2476190476190477,동대문구,서울특별시 동대문구 청량리동 49-1,37.58571599,127.0479117,188,328.947,211.44,193.534,733.9209999999999
322,V02Q1940543,28.95692307692309,5455.092307692307,0.19461538461538466,서대문구,서울특별시 서대문구 홍제동 259-4,37.59010207,126.9446623,301,386.25100000000003,184.32,163.22899999999998,733.8
688,V02Q1940640,29.58409090909089,3238.5227272727275,0.09393939393939388,마포구,서울특별시 마포구 연남동 369-1,37.56390510000001,126.91949040000002,666,547.6940000000001,96.72,89.03399999999999,733.4480000000001
594,V02Q1940497,29.331199999999995,3810.816,0.11919999999999994,마포구,서울특별시 마포구 도화동 204-14,37.53831210000001,126.9478368,572,504.71600000000007,119.28,109.307,733.3030000000001
430,V02Q1940044,29.146093749999995,4423.5390625,0.16328125000000002,구로구,서울특별시 구로구 구로동 317-20,37.49183115,126.8891554,409,445.208,158.4,129.57999999999998,733.1880000000001
229,V02Q1940820,28.798507462686572,6487.179104477612,0.2343283582089552,송파구,서울특별시 송파구 신천동 32,37.51105423,127.1022618,208,339.41600000000005,206.64,186.219,732.2750000000001
610,V02Q1940819,29.3796992481203,3645.66917293233,0.11578947368421046,송파구,서울특별시 송파구 석촌동 184-4,37.50734426,127.1046886,588,514.634,115.44,101.99199999999999,732.066
400,V02Q1940840,29.060294117647057,4949.985294117647,0.1705882352941177,종로구,서울특별시 종로구 명륜4가 206-8,37.58188025,126.9981525,379,417.107,165.6,149.226,731.933
418,V02Q1940051,29.1,4723.1,0.16583333333333333,구로구,서울특별시 구로구 개봉동 375-4,37.48455732,126.8537096,397,429.78000000000003,161.28,140.65699999999998,731.7170000000001
142,V02Q1940046,28.699999999999992,7319.685483870968,0.2879032258064516,구로구,서울특별시 구로구 수궁동 212-15,37.49440262,126.83147209999998,122,303.05,227.28,200.43099999999998,730.761
456,V02Q1940444,29.148739495798306,4491.3445378151255,0.15462184873949575,관악구,서울특별시 관악구 봉천동 661-38,37.4886003,126.9326409,435,446.31000000000006,152.16,131.879,730.349
644,V02Q1940653,29.458536585365852,3278.056910569105,0.10650406504065037,마포구,서울특별시 마포구 노고산동 117-31,37.55310607,126.934626,622,531.164,107.28,91.333,729.7769999999999
300,V02Q1940096,28.89391304347828,5645.4434782608705,0.20173913043478264,동대문구,서울특별시 동대문구 장안동 413-3,37.56298757,127.0595872,279,370.27200000000005,189.6,169.499,729.3710000000001
62,V02Q1940700,28.600769230769227,10579.453846153847,0.4276923076923077,마포구,서울특별시 마포구 도화동 1-452,37.54026182,126.9562101,45,265.031,245.76,218.196,728.987
175,V02Q1940529,28.74710743801654,6661.090909090909,0.2603305785123968,중구,서울특별시 중구 신당동 850-2,37.55940089999999,127.0204385,154,319.02900000000005,219.6,190.19,728.819
565,V02Q1940403,29.265546218487405,3987.932773109244,0.12521008403361342,광진구,서울특별시 광진구 자양동 630,37.53430907,127.0819856,543,485.43100000000004,126.24,116.83099999999999,728.5020000000001
312,V02Q1940304,28.921487603305785,5578.528925619835,0.19834710743801653,동작구,서울특별시 동작구 상도1동 486,37.50407253,126.95182549999998,291,375.23100000000005,186.72,166.155,728.106
725,V02Q1940349,29.705263157894734,2797.447368421052,0.08333333333333331,강동구,서울특별시 강동구 천호동 555-4,37.53976817,127.129658,703,563.1220000000001,87.84,77.121,728.0830000000001
682,V02Q1940043,29.48712121212122,3344.1363636363635,0.09545454545454543,구로구,서울특별시 구로구 구로동 704-13,37.49002864,126.8835537,660,536.6740000000001,98.16,93.214,728.048
728,V02Q1940844,30.569402985074635,1019.8731343283583,0.08283582089552237,종로구,서울특별시 종로구 창신동 산 6-25,37.57894032,127.0144864,706,588.4680000000001,87.11999999999999,51.832,727.4200000000001
415,V02Q1940584,29.07031250000001,4834.3515625,0.16718750000000002,용산구,서울특별시 용산구 후암동 56-38,37.54995512,126.9780201,394,420.96400000000006,162.0,144.21,727.1740000000001
648,V02Q1940566,29.41680000000001,3494.84,0.10559999999999996,중구,서울특별시 중구 산림동 156-30,37.56723424,126.995185,626,522.899,106.32,97.603,726.822
776,V02Q1940807,29.875757575757593,2495.962121212121,0.06136363636363635,종로구,서울특별시 종로구 숭인동 211-16,37.57311562,127.020059,754,578.5500000000001,75.6,71.478,725.628
196,V02Q1940707,28.758139534883718,6596.84496124031,0.2534883720930233,양천구,서울특별시 양천구 신정동 324-10,37.51549527,126.8608799,175,322.33500000000004,214.56,188.518,725.413
727,V02Q1940221,29.670588235294122,2884.6806722689075,0.08319327731092434,영등포구,서울특별시 영등포구 영등포동3가 4-7,37.51891213,126.9077054,705,558.714,87.36,79.211,725.2850000000001
394,V02Q1940515,29.06439393939396,4718.234848484848,0.17196969696969694,구로구,서울특별시 구로구 고척동 291-1,37.50174862,126.8507697,373,418.20900000000006,167.04,140.03,725.279
768,V02Q1940523,29.63709677419356,3407.2903225806454,0.06451612903225806,용산구,서울특별시 용산구 보광동 216-67,37.52568799,126.9992422,746,553.2040000000001,77.52,94.259,724.9830000000001
184,V02Q1940837,28.711428571428566,7082.314285714286,0.2571428571428572,종로구,서울특별시 종로구 궁정동 12-1,37.58414084,126.9705631,163,308.56,217.44,198.34099999999998,724.341
491,V02Q1940540,29.169999999999995,4217.523076923077,0.14692307692307702,중구,서울특별시 중구 을지로2가 181,37.56531098,126.9844918,469,455.12600000000003,144.0,124.146,723.2719999999999
615,V02Q1940586,29.31889763779527,3709.6771653543306,0.1149606299212598,마포구,서울특별시 마포구 망원동 460-5,37.55287788,126.9009012,593,501.41,114.24,105.336,720.986
686,V02Q1940420,29.499186991869912,3016.845528455285,0.09430894308943086,동작구,서울특별시 동작구 상도동 315-37,37.49921389,126.9312596,664,539.98,97.2,83.182,720.3620000000001
177,V02Q1940217,29.02540983606557,3443.22131147541,0.2598360655737705,영등포구,서울특별시 영등포구 여의대방로 300,37.51352713,126.9259171,156,405.53600000000006,219.12,95.51299999999999,720.1690000000001
436,V02Q1940507,29.085714285714296,4601.058823529413,0.16218487394957976,강동구,서울특별시 강동구 성내동 582,37.53127747,127.1232713,415,426.47400000000005,156.96,135.85,719.2840000000001
378,V02Q1940705,28.98267716535433,5158.433070866142,0.17559055118110234,양천구,서울특별시 양천구 신월동 505-21,37.52307169,126.848613,357,393.41400000000004,170.88,154.869,719.1630000000001
756,V02Q1940688,29.721875000000004,2496.3359375,0.06796875,마포구,서울특별시 마포구 성산동 24-18,37.56552044,126.91486090000002,734,566.428,80.39999999999999,71.687,718.515
358,V02Q1940069,28.960162601626013,5171.325203252032,0.18211382113821145,강서구,서울특별시 강서구 염창동 276-9,37.54980487,126.8702252,337,387.353,175.68,155.287,718.32
710,V02Q1940463,29.5103448275862,3002.2672413793102,0.08879310344827583,서대문구,서울특별시 서대문구 북가좌동 357-6,37.57993688,126.90752240000002,688,542.1840000000001,91.44,82.764,716.388
730,V02Q1940954,29.599248120300764,2901.6165413533836,0.08195488721804504,강남구,서울특별시 강남구 논현동 280,37.508671,127.02279140000002,708,548.796,86.64,80.465,715.9010000000001
227,V02Q1940337,28.768595041322307,6160.264462809917,0.23553719008264465,은평구,서울특별시 은평구 응암동 116-29,37.59890825,126.9203089,206,325.641,207.12,182.666,715.4269999999999
528,V02Q1940185,29.18195488721804,4068.4736842105267,0.13533834586466165,영등포구,서울특별시 영등포구 도림동 222-9,37.50965994,126.8961724,506,460.636,135.12,119.339,715.095
684,V02Q1940425,29.425,3322.7155172413795,0.09482758620689652,관악구,서울특별시 관악구 신림동 1468-1,37.486421,126.9330533,662,524.552,97.67999999999999,92.79599999999999,715.028
506,V02Q1940316,29.15000000000001,4313.4846153846165,0.14076923076923073,동작구,서울특별시 동작구 상도동 178-6,37.50479368,126.9407833,484,447.41200000000003,140.4,126.23599999999999,714.048
203,V02Q1940625,28.724,6551.464,0.2520000000000001,관악구,서울특별시 관악구 봉천동 801,37.49069882,126.9587047,182,312.968,212.88,187.682,713.53
505,V02Q1940407,29.124347826086954,4491.608695652174,0.14086956521739127,금천구,서울특별시 금천구 독산동 1150,37.45844386,126.89508909999998,483,440.249,140.88,132.088,713.217
637,V02Q1940054,29.338053097345128,3469.150442477876,0.10884955752212387,구로구,서울특별시 구로구 개봉동 328-23,37.49049118,126.8553777,615,506.92,108.96,96.55799999999999,712.438
438,V02Q1940650,29.030952380952396,4899.309523809524,0.16190476190476194,마포구,서울특별시 마포구 염리동 154-30,37.54668774,126.9454005,417,407.189,156.48,147.136,710.805
370,V02Q1940165,28.947619047619053,5157.5,0.1777777777777778,구로구,서울특별시 구로구 오류동 38-29,37.49689198,126.8437271,349,382.94500000000005,172.79999999999998,154.66,710.405
51,V02Q1940655,28.526666666666664,10085.348148148149,0.48592592592592604,종로구,서울특별시 종로구 가회동 210,37.58005084,126.9851462,34,244.64400000000003,248.39999999999998,216.106,709.15
766,V02Q1940716,29.679856115107913,2439.5971223021584,0.06474820143884888,종로구,서울특별시 종로구 무악동 60-2,37.57595297,126.9581816,744,560.3670000000001,78.0,70.224,708.5910000000001
125,V02Q1940204,28.619847328244266,7758.0,0.30687022900763355,광진구,서울특별시 광진구 화양동 111-140,37.54669635,127.0720365,107,272.194,230.88,204.82,707.894
156,V02Q1940575,28.654887218045115,7012.067669172932,0.2736842105263159,성동구,서울특별시 성동구 행당동 375-13,37.55582287,127.0323182,136,286.52000000000004,223.92,197.087,707.527
361,V02Q1940768,28.894656488549643,5370.458015267175,0.1809160305343512,송파구,서울특별시 송파구 장지동 899-1,37.47825069,127.1392446,340,370.82300000000004,174.95999999999998,161.34799999999998,707.131
453,V02Q1940138,29.057142857142853,4668.294642857143,0.1553571428571429,서대문구,서울특별시 서대문구 창천동 18-54,37.55763712,126.9392536,432,416.00500000000005,152.88,137.94,706.825
580,V02Q1940754,29.22706766917295,3814.812030075188,0.12255639097744354,양천구,서울특별시 양천구 신월동 642,37.52165976,126.8426812,558,473.86,122.64,109.934,706.434
605,V02Q1940065,29.26183206106869,3738.251908396946,0.11679389312977095,구로구,서울특별시 구로구 고척동 283-2,37.50568303,126.8586102,583,483.22700000000003,116.64,105.963,705.83
469,V02Q1940161,29.06818181818181,4567.990909090909,0.15090909090909088,강남구,서울특별시 강남구 신사동 658-2,37.52634275,127.0374614,447,420.413,149.28,135.22299999999998,704.9159999999999
511,V02Q1940598,29.13805970149255,4201.6567164179105,0.13880597014925367,중구,서울특별시 중구 청구로 8길 41,37.55172798,127.012144,489,441.90200000000004,139.2,123.728,704.83
555,V02Q1940173,29.191666666666666,3832.583333333334,0.12749999999999995,강서구,서울특별시 강서구 화곡동 943-7,37.53400973,126.8610668,533,465.04400000000004,128.64,110.77,704.454
289,V02Q1940363,28.800000000000004,5700.204918032787,0.20655737704918034,서대문구,서울특별시 서대문구 홍은동 277-47,37.58137532,126.9343273,268,339.96700000000004,192.23999999999998,170.962,703.169
471,V02Q1940322,29.09603174603175,4232.039682539683,0.1507936507936508,성북구,서울특별시 성북구 종암동 3-89,37.59917241,127.0360274,449,428.67800000000005,148.79999999999998,124.773,702.2510000000001
695,V02Q1940888,29.410937499999992,3132.1171875,0.09218749999999996,광진구,서울특별시 광진구 중곡동 265-5,37.56307353,127.0819947,673,521.2460000000001,95.03999999999999,85.481,701.767
256,V02Q1940334,28.74838709677419,6064.346774193548,0.21854838709677413,도봉구,서울특별시 도봉구 방학동 685-69,37.66563906,127.0400687,235,320.13100000000003,200.16,180.994,701.2850000000001
315,V02Q1940371,28.823333333333334,5558.466666666666,0.19750000000000004,광진구,서울특별시 광진구 광장동 248-23,37.54667759,127.1034537,294,348.783,186.0,165.737,700.52
346,V02Q1940223,28.857142857142865,5334.0672268907565,0.1865546218487396,영등포구,서울특별시 영등포구 문래동3가 77-2,37.51804607,126.893018,325,361.456,178.56,160.303,700.3190000000001
283,V02Q1940386,28.78842975206613,5739.256198347108,0.20826446280991734,강북구,서울특별시 강북구 미아동 87-115,37.61589809,127.03416029999998,262,334.45700000000005,193.68,171.589,699.7260000000001
95,V02Q1940239,28.52698412698413,9965.34126984127,0.3484126984126984,강남구,서울특별시 강남구 대치동 1027,37.49344719,127.05696129999998,77,245.19500000000002,238.07999999999998,215.688,698.963
351,V02Q1940630,28.872727272727264,5246.555555555556,0.18484848484848485,용산구,서울특별시 용산구 한강로3가 65-206,37.52554041,126.9650708,330,363.10900000000004,177.35999999999999,157.37699999999998,697.846
716,V02Q1940762,29.397727272727245,3113.431818181818,0.08787878787878782,양천구,서울특별시 양천구 목동 823,37.54024511,126.8644211,694,520.695,90.0,85.063,695.758
642,V02Q1940646,29.274809160305338,3584.450381679389,0.10687022900763353,마포구,서울특별시 마포구 합정동 406-4,37.54767426,126.9113269,620,487.63500000000005,107.75999999999999,100.11099999999999,695.506
445,V02Q1940144,29.01875,4672.4140625,0.15781250000000002,서초구,서울특별시 서초구 방배동 921-30,37.48255634,126.9946044,424,402.23,154.79999999999998,138.358,695.3879999999999
518,V02Q1940673,29.117322834645677,4043.417322834646,0.1377952755905511,관악구,서울특별시 관악구 신림동 495,37.48799620000001,126.9182374,496,436.94300000000004,137.51999999999998,118.92099999999999,693.384
803,V02Q1940687,29.671199999999992,2074.192,0.04799999999999998,종로구,서울특별시 종로구 동숭동 129-77,37.58117314,127.0057341,781,559.2650000000001,69.12,64.163,692.5480000000001
307,V02Q1940642,28.78615384615384,5699.607692307693,0.2,성동구,서울특별시 성동구 용답동 239-3,37.56021552,127.06433909999998,286,333.906,187.68,170.753,692.3389999999999
633,V02Q1940832,29.259842519685048,3541.4409448818897,0.10944881889763773,송파구,서울특별시 송파구 방이동 193-14,37.51176831,127.1242095,611,482.67600000000004,109.92,98.648,691.244
303,V02Q1940394,28.770491803278688,5801.680327868852,0.2008196721311476,강북구,서울특별시 강북구 번동 253,37.63213319,127.0380993,282,327.29400000000004,188.88,174.09699999999998,690.271
452,V02Q1940867,28.99218750000001,4725.890625,0.15546875000000004,양천구,서울특별시 양천구 목동 621-19,37.54502804,126.8646607,431,395.61800000000005,153.12,141.075,689.8130000000001
53,V02Q1940780,28.43260869565218,11650.347826086956,0.4797101449275362,중구,서울특별시 중구 서소문동 37,37.5646989,126.975981,36,220.95100000000002,247.92,220.077,688.948
737,V02Q1940293,29.451162790697683,2763.5813953488373,0.07984496124031003,강남구,서울특별시 강남구 개포동 1221-3,37.47640069,127.0484893,715,526.7560000000001,84.96,76.703,688.4190000000001
207,V02Q1940852,28.66000000000001,6579.8,0.24923076923076926,서대문구,서울특별시 서대문구 홍제동 7-13,37.59374035,126.9497638,186,288.173,211.92,188.309,688.4019999999999
708,V02Q1940632,29.358730158730157,3137.468253968254,0.08888888888888884,성동구,서울특별시 성동구 홍익동 594,37.56496432,127.03447479999998,686,510.22600000000006,91.92,85.899,688.0450000000001
691,V02Q1940791,29.326923076923073,3199.7384615384613,0.09307692307692304,송파구,서울특별시 송파구 마천동 128-50,37.49638178,127.1490194,669,503.61400000000003,96.0,87.78,687.394
718,V02Q1940860,29.356716417910448,3192.783582089552,0.08656716417910444,광진구,서울특별시 광진구 자양동 720,37.5334424,127.0809633,696,509.67500000000007,89.75999999999999,87.571,687.0060000000001
132,V02Q1940290,28.563247863247863,7576.410256410258,0.3,노원구,서울특별시 노원구 월계동 429-32,37.62054243,127.0624632,113,254.562,229.44,202.521,686.523
171,V02Q1940761,28.60518518518519,7054.57037037037,0.2637037037037037,성동구,서울특별시 성동구 마장동 산 23-2,37.56405244,127.0444844,150,266.684,220.56,198.132,685.376
654,V02Q1940095,29.279487179487177,3259.3162393162397,0.10341880341880336,양천구,서울특별시 양천구 목동 868,37.53291626,126.8683909,632,490.39000000000004,104.88,90.079,685.3489999999999
629,V02Q1940660,29.20526315789473,3703.263157894737,0.11127819548872173,관악구,서울특별시 관악구 신림동 1469-9,37.48712943,126.923453,607,469.45200000000006,110.88,104.91799999999999,685.2500000000001
473,V02Q1940588,28.992125984251985,4732.362204724411,0.1503937007874016,성동구,서울특별시 성동구 사근동 126-104,37.55818867,127.05082659999998,451,395.067,148.32,141.284,684.6709999999999
443,V02Q1940554,28.973015873015875,4707.412698412699,0.157936507936508,중구,서울특별시 중구 신당동 377-171,37.55728601,127.0091753,422,389.557,155.28,139.821,684.658
544,V02Q1940181,29.105217391304365,4084.1478260869567,0.1313043478260869,강서구,서울특별시 강서구 화곡동 947-4,37.52757708,126.843082,522,431.43300000000005,131.28,120.59299999999999,683.306
785,V02Q1940801,29.51230769230769,2255.0153846153844,0.0569230769230769,양천구,서울특별시 양천구 신정동 331-2,37.51402198,126.8740014,763,543.2860000000001,73.44,66.462,683.1880000000001
824,V02Q1940649,29.723809523809518,725.9761904761905,0.030952380952380967,종로구,서울특별시 종로구 사직동 1-28,37.57616826,126.9688622,801,566.979,64.32,49.533,680.832
572,V02Q1940327,29.14180327868853,3871.245901639344,0.12459016393442618,광진구,서울특별시 광진구 구의동 237-10,37.54225653,127.0851136,550,443.55500000000006,124.56,112.651,680.766
287,V02Q1940306,28.74521739130435,5614.6,0.2069565217391305,강동구,서울특별시 강동구 천호동 357-29,37.54244851,127.1257054,266,318.478,192.72,168.45399999999998,679.6519999999999
588,V02Q1940889,29.149206349206352,3865.333333333334,0.12063492063492055,도봉구,서울특별시 도봉구 창동 585-13,37.63994636,127.0360107,566,446.86100000000005,120.72,112.024,679.605
96,V02Q1940789,28.47045454545455,8902.181818181818,0.3477272727272728,강남구,서울특별시 강남구 삼성동 16-1,37.51755161,127.0479951,78,229.76700000000002,237.84,211.50799999999998,679.115
220,V02Q1940785,28.63308270676693,6789.428571428572,0.2421052631578948,동대문구,서울특별시 동대문구 용두동 237-1,37.57614571,127.0288362,199,277.153,208.79999999999998,192.90699999999998,678.8599999999999
272,V02Q1940118,28.70636363636363,5850.8,0.21272727272727274,동대문구,서울특별시 동대문구 제기동 190-14,37.58238909,127.0314924,251,306.35600000000005,196.32,175.769,678.445
94,V02Q1940829,28.46484375000001,8749.7109375,0.3531250000000001,영등포구,서울특별시 영등포구 당산동 95-1,37.53727135,126.9043173,76,228.11400000000003,238.32,211.09,677.524
340,V02Q1940809,28.776744186046518,5623.875968992248,0.18914728682170545,양천구,서울특별시 양천구 목동 131-30,37.54364297,126.8813523,319,328.396,180.0,168.66299999999998,677.059
657,V02Q1940587,29.226612903225806,3554.9112903225805,0.10322580645161288,성동구,서울특별시 성동구 성수동2가 279,37.54667133,127.06213970000002,635,473.309,104.16,99.484,676.9530000000001
247,V02Q1940577,28.677611940298505,5931.865671641791,0.2238805970149254,용산구,서울특별시 용산구 서빙고동 1-3,37.52364288,126.993654,226,296.43800000000005,202.32,178.06799999999998,676.826
741,V02Q1940839,29.381021897810196,2802.92700729927,0.07737226277372262,종로구,서울특별시 종로구 돈의동 162,37.57121882,126.9906086,719,515.1850000000001,84.0,77.33,676.5150000000001
663,V02Q1940617,29.244852941176482,3391.1029411764707,0.10147058823529408,성동구,서울특별시 성동구 옥수동 362-1,37.5419721,127.0163706,641,479.37000000000006,102.72,94.05,676.14
782,V02Q1940193,29.471900826446284,2397.743801652893,0.05785123966942149,강서구,서울특별시 강서구 화곡동 391-52,37.5311064,126.8499429,760,532.2660000000001,74.16,69.597,676.023
759,V02Q1940369,29.427966101694924,2439.864406779661,0.06694915254237285,금천구,서울특별시 금천구 독산동 980-44,37.47432254,126.9024197,737,525.1030000000001,79.44,70.43299999999999,674.9760000000001
606,V02Q1940821,29.15833333333334,3792.0303030303025,0.1166666666666666,송파구,서울특별시 송파구 석촌동 324-1,37.50283277,127.1086949,584,450.718,116.39999999999999,107.844,674.962
560,V02Q1940469,29.108403361344546,3904.462184873949,0.12605042016806714,양천구,서울특별시 양천구 신정동 729,37.51062672,126.8433947,538,432.535,127.44,114.11399999999999,674.089
374,V02Q1940678,28.83076923076921,4984.4,0.17692307692307696,관악구,서울특별시 관악구 봉천동 979-7,37.48258121,126.942046,353,350.987,171.84,149.85299999999998,672.68
297,V02Q1940235,28.703125000000004,5869.1953125,0.20312499999999994,중랑구,서울특별시 중랑구 묵동 392-2,37.61254656,127.0734148,276,305.805,190.32,176.18699999999998,672.312
614,V02Q1940045,29.170399999999994,3617.136,0.11519999999999996,구로구,서울특별시 구로구 구로동 1259,37.48958795,126.8764395,592,455.677,114.47999999999999,101.365,671.522
267,V02Q1940086,28.673387096774203,5925.467741935483,0.21370967741935487,구로구,서울특별시 구로구 고척동 73-3,37.49775403,126.8633107,246,295.887,197.51999999999998,177.85899999999998,671.266
73,V02Q1940257,28.403174603174595,10150.769841269841,0.4063492063492065,노원구,서울특별시 노원구 중계동 504-2,37.6395639,127.0605673,56,211.584,243.12,216.524,671.2280000000001
316,V02Q1940555,28.749629629629606,5469.281481481482,0.1970370370370371,관악구,서울특별시 관악구 봉천동 738-360,37.48547764,126.9474934,295,320.682,185.76,164.483,670.925
623,V02Q1940623,29.158267716535434,3797.220472440945,0.11338582677165353,성동구,서울특별시 성동구 마장동 831,37.56371986,127.039493,601,450.16700000000003,112.32,108.262,670.749
211,V02Q1940064,28.62255639097744,6443.669172932331,0.2458646616541353,성북구,서울특별시 성북구 장위동 45-4,37.61107942,127.0555166,190,273.29600000000005,210.95999999999998,185.59199999999998,669.848
643,V02Q1940638,29.191791044776128,3452.589552238806,0.10671641791044773,마포구,서울특별시 마포구 합정동 407,37.55029320000001,126.9103908,621,465.595,107.52,95.722,668.837
696,V02Q1940672,29.28188976377953,3010.6929133858266,0.09212598425196844,관악구,서울특별시 관악구 신림동 1469-4,37.48797466,126.9258106,674,490.94100000000003,94.8,82.973,668.7139999999999
367,V02Q1940760,28.795588235294108,5255.551470588235,0.17867647058823533,양천구,서울특별시 양천구 신월동 1029,37.51760243,126.8469207,346,337.21200000000005,173.51999999999998,157.795,668.527
397,V02Q1940516,28.85000000000001,4859.395522388059,0.17164179104477614,서대문구,서울특별시 서대문구 북아현동 1-1785,37.56506052,126.9543342,376,357.048,166.32,145.046,668.414
57,V02Q1940295,28.348091603053433,11284.114503816794,0.4656488549618322,동작구,서울특별시 동작구 대방동 501,37.50871275,126.9251675,40,201.66600000000003,246.95999999999998,219.45,668.076
47,V02Q1940330,28.323529411764714,12149.285714285714,0.5000000000000001,강북구,서울특별시 강북구 미아동 791-985,37.62778821,127.0193507,30,197.258,249.35999999999999,220.91299999999998,667.531
309,V02Q1940813,28.70697674418603,5742.31007751938,0.1992248062015505,마포구,서울특별시 마포구 망원동 205-5,37.55461778,126.895956,288,307.458,187.44,171.798,666.696
749,V02Q1940489,29.351999999999997,2762.0959999999995,0.07279999999999996,양천구,서울특별시 양천구 목동 879,37.53077062,126.86459209999998,727,508.02200000000005,82.08,76.494,666.5960000000001
225,V02Q1940243,28.611864406779645,6627.067796610168,0.23813559322033906,중랑구,서울특별시 중랑구 상봉동 120-52,37.59335302,127.0809757,204,268.33700000000005,207.6,189.563,665.5
700,V02Q1940581,29.27175572519085,3041.2290076335885,0.09160305343511443,마포구,서울특별시 마포구 망원동 468-16,37.56142506,126.9016199,678,486.533,93.84,84.018,664.3910000000001
45,V02Q1940129,28.412396694214873,7121.752066115702,0.5008264462809918,강남구,서울특별시 강남구 대치동 16-1,37.49765571,127.0743987,28,215.44100000000003,249.84,198.54999999999998,663.831
157,V02Q1940873,28.515503875968967,7175.348837209303,0.2736434108527131,송파구,서울특별시 송파구 풍납동 281-3,37.53247211,127.1143011,137,240.787,223.67999999999998,199.177,663.644
83,V02Q1940281,28.37457627118644,9403.27966101695,0.37288135593220345,노원구,서울특별시 노원구 상계동 666-3,37.66109165,127.0590435,65,206.62500000000003,240.95999999999998,214.643,662.2280000000001
362,V02Q1940106,28.79039999999999,5033.928,0.18080000000000004,동대문구,서울특별시 동대문구 전농동 679,37.57758084,127.0471936,341,335.559,174.72,151.94299999999998,662.222
711,V02Q1940177,29.266086956521736,3066.1739130434785,0.08869565217391302,강남구,서울특별시 강남구 대치동 905,37.50227825,127.0539647,689,485.982,91.2,84.43599999999999,661.618
365,V02Q1940603,28.78473282442749,5125.679389312977,0.1801526717557252,성동구,서울특별시 성동구 용답동 183-1,37.56336834,127.0559644,344,332.25300000000004,174.0,154.033,660.2860000000001
148,V02Q1940422,28.476859504132232,7586.06611570248,0.2834710743801653,서대문구,서울특별시 서대문구 대신동 125-26,37.56757695,126.9464658,128,230.86900000000003,225.84,203.148,659.8570000000001
532,V02Q1940416,29.00610687022901,4230.763358778626,0.13435114503816792,광진구,서울특별시 광진구 구의동 617-45,37.54776822,127.0863736,510,400.026,134.16,124.564,658.75
472,V02Q1940659,28.910769230769233,4635.892307692307,0.15076923076923074,양천구,서울특별시 양천구 신월동 52-9,37.53774885,126.8278791,450,373.02700000000004,148.56,137.10399999999998,658.691
304,V02Q1940708,28.70692307692307,5383.538461538462,0.2007692307692308,송파구,서울특별시 송파구 잠실동 22,37.51430062,127.0914778,283,306.90700000000004,188.64,161.766,657.313
685,V02Q1940634,29.193700787401557,3319.724409448819,0.09448818897637787,마포구,서울특별시 마포구 아현동 612-8,37.55406743,126.9565258,663,466.69700000000006,97.44,92.58699999999999,656.724
526,V02Q1940491,29.004032258064512,4147.822580645161,0.13629032258064513,성동구,서울특별시 성동구 용답동 103-9,37.568251,127.048139,504,398.92400000000004,135.6,121.63799999999999,656.162
433,V02Q1940145,28.844881889763784,4796.322834645669,0.16299212598425208,강남구,서울특별시 강남구 논현동 22,37.51402419,127.0216812,412,354.84400000000005,157.68,143.374,655.8980000000001
802,V02Q1940656,29.4223880597015,1987.8731343283584,0.04850746268656715,금천구,서울특별시 금천구 가산동 가산로5길 43,37.47351068,126.8921347,780,524.0010000000001,69.36,62.282,655.6430000000001
169,V02Q1940879,28.494160583941607,7126.941605839416,0.26496350364963506,성북구,서울특별시 성북구 길음동 1064-1,37.60666796,127.0273181,148,235.27700000000002,221.04,198.759,655.076
451,V02Q1940263,28.853658536585368,4755.552845528456,0.15609756097560967,성동구,서울특별시 성동구 용답동 239-3,37.56087438,127.0627473,430,359.252,153.35999999999999,142.329,654.941
119,V02Q1940093,28.463559322033905,6992.957627118643,0.3169491525423729,강서구,서울특별시 강서구 방화동 134-20,37.57784085,126.818892,101,226.461,232.32,196.042,654.823
826,V02Q1940341,29.47333333333333,1460.2666666666669,0.030000000000000013,은평구,서울특별시 은평구 역촌동 62-28,37.60413569,126.9147653,803,532.817,63.839999999999996,58.102,654.759
784,V02Q1940068,29.37499999999999,2302.564516129032,0.05725806451612901,서초구,서울특별시 서초구 방배동 838-1,37.4913371,126.9923309,762,513.532,73.67999999999999,67.298,654.51
743,V02Q1940782,29.287022900763358,2772.977099236641,0.07633587786259541,강서구,서울특별시 강서구 화곡동 1019,37.54467828,126.83510420000002,721,493.14500000000004,83.52,76.91199999999999,653.5770000000001
128,V02Q1940452,28.413913043478257,7762.878260869566,0.30434782608695665,관악구,서울특별시 관악구 봉천동 1560-63,37.47889253,126.9444627,110,217.09400000000002,230.16,205.029,652.283
444,V02Q1940530,28.86859504132231,4539.024793388429,0.15785123966942152,성동구,서울특별시 성동구 성수동1가 656-130,37.54214419,127.0477518,423,362.55800000000005,155.04,133.969,651.567
587,V02Q1940658,29.071641791044772,3752.402985074627,0.12089552238805963,관악구,서울특별시 관악구 신림동 1586-1,37.48355726,126.9256695,565,422.06600000000003,120.96,106.58999999999999,649.6160000000001
478,V02Q1940573,28.890983606557377,4522.016393442624,0.14999999999999994,중구,서울특별시 중구 을지로6가 16-4,37.56839081,127.0054393,456,369.17,147.12,133.13299999999998,649.423
603,V02Q1940196,29.099999999999994,3675.8260869565215,0.11739130434782605,영등포구,서울특별시 영등포구 신길동 89-152,37.50989238,126.9205341,581,429.22900000000004,117.11999999999999,103.03699999999999,649.3860000000001
512,V02Q1940240,28.95081967213116,4327.0327868852455,0.1385245901639344,양천구,서울특별시 양천구 신월1동 남부순환로59길,37.53206064,126.8317217,490,383.49600000000004,138.96,126.863,649.319
43,V02Q1940336,28.23360655737706,12145.819672131147,0.5049180327868853,은평구,서울특별시 은평구 구산동 152-3,37.61179964,126.909853,27,178.524,250.07999999999998,220.70399999999998,649.308
383,V02Q1940387,28.769166666666663,5079.408333333334,0.175,광진구,서울특별시 광진구 화양동 4-20,37.54005404,127.0709793,362,326.74300000000005,169.68,152.57,648.993
955,V02Q1941013,30.387786259541997,0.0,0.0,양천구,서울특별시 양천구 오목로34길 5,37.5245308,126.855007,929,587.3660000000001,48.239999999999995,12.122,647.7280000000001
215,V02Q1940836,28.536619718309854,6638.845070422535,0.2443661971830986,영등포구,서울특별시 영등포구 여의도동 19-1,37.52600465,126.91335320000002,194,247.39900000000003,210.0,189.772,647.171
288,V02Q1940148,28.650833333333345,5652.491666666668,0.20666666666666664,서초구,서울특별시 서초구 반포동 1117,37.4999898,126.98703700000002,267,284.31600000000003,192.48,169.708,646.504
781,V02Q1940717,29.335294117647056,2177.2279411764707,0.05808823529411763,송파구,서울특별시 송파구 문정동 112-17,37.48539023,127.1321718,759,506.369,74.39999999999999,65.62599999999999,646.395
240,V02Q1940714,28.575572519083966,6157.404580152672,0.2282442748091603,송파구,서울특별시 송파구 신천동 32,37.51334541,127.1068182,219,258.41900000000004,204.0,182.457,644.876
809,V02Q1940484,29.374576271186427,2051.8050847457625,0.0423728813559322,금천구,서울특별시 금천구 독산동 1020-21,37.46802677,126.9021912,787,512.981,67.67999999999999,63.327,643.9879999999999
556,V02Q1940544,29.00000000000001,4023.2265625,0.12734374999999998,중구,서울특별시 중구 장충동2가 173-7,37.56163971,127.001153,534,397.271,128.4,118.294,643.965
739,V02Q1940748,29.2564885496183,2868.5190839694656,0.07786259541984729,성동구,서울특별시 성동구 성수동1가 694-3,37.53736986,127.0508722,717,481.023,84.47999999999999,78.375,643.878
305,V02Q1940786,28.63030303030305,5936.05303030303,0.20075757575757586,성동구,서울특별시 성동구 성수동1가 27-23,37.54210154,127.0496713,284,275.5,188.4,178.486,642.386
795,V02Q1940684,29.333082706766916,2070.375939849624,0.05187969924812028,마포구,서울특별시 마포구 용강동 38-3,37.54021108,126.9438638,773,505.81800000000004,71.03999999999999,63.954,640.812
520,V02Q1940417,28.93692307692309,4216.446153846154,0.13769230769230764,강동구,서울특별시 강동구 성내동 450-25,37.52595923,127.1324933,498,379.639,137.04,123.937,640.616
98,V02Q1940412,28.291452991452985,8928.102564102563,0.3461538461538461,서대문구,서울특별시 서대문구 홍은동 11-314,37.6002927,126.945827,80,191.197,237.35999999999999,211.926,640.483
497,V02Q1940774,28.887769784172665,4357.517985611511,0.1431654676258993,양천구,서울특별시 양천구 목동 901,37.53851648,126.878244,475,368.619,142.56,127.699,638.878
31,V02Q1940816,28.16788321167883,14231.985401459851,0.5985401459854016,서초구,서울특별시 서초구 반포동 649-1,37.51241208,126.9986828,19,164.198,252.0,222.376,638.574
494,V02Q1940112,28.874166666666675,4469.7,0.1458333333333333,성동구,서울특별시 성동구 송정동 92-29,37.55650451,127.0711935,472,364.211,143.28,130.834,638.325
382,V02Q1940776,28.724637681159425,5156.028985507246,0.17536231884057973,양천구,서울특별시 양천구 목동 902,37.5396843,126.8750264,361,313.519,169.92,154.451,637.89
495,V02Q1940380,28.873282442748103,4455.18320610687,0.14503816793893126,서초구,서울특별시 서초구 양재동 310-6,37.47160463,127.0409436,473,363.66,143.04,130.416,637.116
69,V02Q1940335,28.222314049586767,10278.884297520659,0.4198347107438017,성북구,서울특별시 성북구 하월곡동 73-96,37.60774203,127.0413403,52,175.769,244.07999999999998,216.94199999999998,636.7909999999999
843,V02Q1940605,29.41111111111111,1107.8412698412699,0.02142857142857144,마포구,서울특별시 마포구 서교동 466-2,37.55443,126.91544009999998,819,521.797,60.0,53.922,635.719
514,V02Q1940134,28.89491525423729,4291.110169491525,0.13813559322033894,광진구,서울특별시 광진구 군자동 55-1,37.55579789,127.0758197,492,371.374,138.48,125.609,635.4630000000001
124,V02Q1940622,28.328461538461546,8021.892307692307,0.3092307692307692,마포구,서울특별시 마포구 성산동 산 53-27,37.57048042,126.89657350000002,106,197.80900000000003,231.12,206.283,635.212
372,V02Q1940294,28.718656716417907,4961.410447761194,0.1776119402985075,광진구,서울특별시 광진구 구의동 113,37.54816059,127.0896827,351,311.86600000000004,172.32,149.644,633.83
180,V02Q1940094,28.417094017094026,6996.931623931623,0.25897435897435894,강남구,서울특별시 강남구 세곡동 110-5,37.46682943,127.1088929,159,217.645,218.4,196.45999999999998,632.505
604,V02Q1940559,29.04615384615385,3681.492307692308,0.11692307692307685,용산구,서울특별시 용산구 이태원동 34-66,37.53293663,126.9912199,582,412.148,116.88,103.455,632.4830000000001
302,V02Q1940166,28.624031007751952,5636.2248062015515,0.2015503875968992,강서구,서울특별시 강서구 등촌동 659,37.55785223,126.849018,281,273.84700000000004,189.12,169.081,632.048
645,V02Q1940616,29.07286821705427,3637.9767441860467,0.10620155038759688,성동구,서울특별시 성동구 하왕십리동 978-2,37.56044317,127.0308353,623,423.168,107.03999999999999,101.783,631.991
116,V02Q1940663,28.292187500000008,8069.3203125,0.3187500000000001,관악구,서울특별시 관악구 남현동 1086-1,37.47474727,126.9777859,98,191.74800000000002,233.04,206.91,631.698
310,V02Q1940685,28.638095238095246,5534.039682539683,0.19920634920634928,관악구,서울특별시 관악구 신림동 808-266,37.47839602,126.9162619,289,278.80600000000004,187.2,165.10999999999999,631.116
470,V02Q1940152,28.817500000000013,4543.691666666667,0.1508333333333333,강남구,서울특별시 강남구 역삼동 695-14,37.50653959,127.0457279,448,347.68100000000004,149.04,134.387,631.108
432,V02Q1940565,28.790400000000005,4621.984,0.16319999999999993,성동구,서울특별시 성동구 성수동2가 333-140,37.54195012,127.0536124,411,336.11,157.92,136.89499999999998,630.925
646,V02Q1940790,29.078461538461532,3502.4076923076923,0.10615384615384607,송파구,서울특별시 송파구 방이동 53,37.51427828,127.112259,624,425.92300000000006,106.8,98.021,630.744
273,V02Q1940101,28.81101694915255,3240.898305084746,0.21271186440677967,동대문구,서울특별시 동대문구 용두동 129-3,37.57335724,127.0325399,252,344.375,196.07999999999998,89.243,629.6979999999999
323,V02Q1940376,28.633870967741927,5589.8387096774195,0.19354838709677424,강동구,서울특별시 강동구 천호동 221-24,37.54530451,127.136675,302,277.704,184.07999999999998,166.57299999999998,628.357
334,V02Q1940734,28.658088235294127,5278.955882352941,0.19044117647058828,송파구,서울특별시 송파구 신천동 7,37.5183379,127.1004663,313,287.622,181.44,159.25799999999998,628.3199999999999
465,V02Q1940114,28.790434782608692,4700.069565217392,0.15217391304347816,강서구,서울특별시 강서구 가양동 146-32,37.56929679,126.8427325,443,336.661,150.23999999999998,139.403,626.304
359,V02Q1940766,28.681203007518807,5066.894736842105,0.18195488721804512,양천구,서울특별시 양천구 목동 655-4,37.54565284,126.8631017,338,298.091,175.44,152.152,625.683
567,V02Q1940124,28.981889763779535,3751.7165354330714,0.1251968503937007,강서구,서울특별시 강서구 내발산동 686-4,37.55338226,126.8325758,545,392.86300000000006,125.75999999999999,106.381,625.004
493,V02Q1940806,28.829323308270663,4459.834586466165,0.1458646616541354,양천구,서울특별시 양천구 목동 956,37.54803199,126.8667974,471,350.43600000000004,143.51999999999998,130.625,624.581
80,V02Q1940192,28.183870967741925,9373.225806451614,0.3766129032258065,강남구,서울특별시 강남구 청담동 77-43,37.52224273,127.0534516,62,168.055,241.67999999999998,214.434,624.169
634,V02Q1940461,29.052100840336138,3543.7058823529414,0.10924369747899157,마포구,서울특별시 마포구 신정동 30-2,37.54354866,126.9300676,612,414.35200000000003,109.67999999999999,99.066,623.0980000000001
277,V02Q1940881,28.559541984732817,5798.32824427481,0.20992366412213734,종로구,서울특별시 종로구 동숭동 1-124,37.58027207,127.00306840000002,256,254.01100000000002,195.12,173.888,623.019
683,V02Q1940545,29.108730158730154,3281.738095238096,0.0952380952380952,성동구,서울특별시 성동구 성수동1가 668-11,37.5463061,127.0436415,661,433.086,97.92,91.542,622.548
373,V02Q1940321,28.682786885245903,5013.131147540984,0.17704918032786887,강동구,서울특별시 강동구 명일동 332,37.54946832,127.1463394,352,299.19300000000004,172.07999999999998,151.107,622.38
917,OC3CL200104,30.27943925233646,0.0,0.0,강북구,서울특별시 강북구 수유동 32-2,37.64061679,127.021637,891,585.7130000000001,34.8,1.4629999999999999,621.976
276,V02Q1940314,28.567910447761204,5653.373134328358,0.21044776119402986,강북구,서울특별시 강북구 미아동 679-12,37.61856124,127.0228038,255,256.21500000000003,195.35999999999999,169.917,621.4920000000001
662,V02Q1940085,29.06769230769232,3505.7384615384613,0.10153846153846152,동대문구,서울특별시 동대문구 장안동 478-11,37.56833563,127.0658885,640,419.862,102.96,98.22999999999999,621.052
758,V02Q1940696,29.21221374045801,2423.2824427480914,0.06717557251908396,마포구,서울특별시 마포구 연남동 250-1,37.56471491,126.9222725,736,471.105,79.92,70.015,621.04
170,V02Q1940675,28.35955882352941,6993.448529411765,0.2647058823529412,관악구,서울특별시 관악구 봉천동 1693-13,37.47827679,126.9395729,149,203.87,220.79999999999998,196.251,620.9209999999999
609,V02Q1940354,29.00230769230768,3712.392307692308,0.1161538461538461,강동구,서울특별시 강동구 성내동 150-9,37.5347172,127.1299797,587,398.37300000000005,115.67999999999999,105.545,619.598
541,V02Q1940553,28.87520000000001,4153.192,0.13199999999999998,중구,서울특별시 중구 필동2가 20-9,37.56082689,126.996001,519,365.31300000000005,132.0,122.265,619.5780000000001
561,V02Q1940265,28.93801652892561,3837.3057851239673,0.12561983471074376,도봉구,서울특별시 도봉구 덕릉로53길 54,37.6395677,127.0350186,539,380.74100000000004,126.96,110.979,618.6800000000001
1083,V02Q1940751,30.16590909090909,0.0,0.0,구로구,서울특별시 구로구 구로동 105-1,37.4984887,126.8895025,1055,583.509,34.08,0.836,618.4250000000001
620,V02Q1940130,28.986206896551728,3842.7586206896553,0.11379310344827585,강서구,서울특별시 강서구 가양동 1484,37.56124878,126.8596643,598,393.96500000000003,113.03999999999999,111.39699999999999,618.402
320,V02Q1940390,28.582352941176467,5678.420168067227,0.19579831932773115,도봉구,서울특별시 도봉구 창동 135-84,37.65472878,127.047743,299,261.17400000000004,184.79999999999998,170.54399999999998,616.518
788,V02Q1940599,29.23157894736843,2262.0902255639103,0.05563909774436089,중구,서울특별시 중구 신당동 330-342,37.55740456,127.0166075,766,476.064,72.72,66.67099999999999,615.4549999999999
545,V02Q1940624,29.017968749999994,2947.4375,0.13046875000000002,마포구,서울특별시 마포구 망원동 408-5,37.55458164,126.9038541,523,401.67900000000003,131.04,82.137,614.856
754,V02Q1940431,29.18114754098361,2544.303278688525,0.06885245901639342,강북구,서울특별시 강북구 번동 454-116,37.63638945,127.0339636,732,459.53400000000005,80.88,73.777,614.191
232,V02Q1940651,28.437795275590553,6329.535433070865,0.2314960629921261,용산구,서울특별시 용산구 용산동2가 1-1723,37.54623974,126.98479009999998,211,222.604,205.92,184.547,613.071
129,V02Q1940808,28.2280303030303,7913.219696969697,0.3030303030303029,종로구,서울특별시 종로구 신문로2가 6-3,37.56874524,126.9687649,111,177.42200000000003,229.92,205.65599999999998,612.9979999999999
817,V02Q1940072,29.275630252100843,1443.0588235294117,0.0361344537815126,강서구,서울특별시 강서구 화곡동 999-6,37.55183644,126.8458607,794,488.18600000000004,66.0,57.893,612.0790000000001
260,V02Q1940597,28.50148148148148,5817.311111111111,0.21703703703703706,중구,서울특별시 중구 회현동1가 110-1,37.55619503,126.98116090000002,239,237.48100000000002,199.2,174.724,611.405
543,V02Q1940941,28.855813953488358,4029.046511627907,0.13178294573643407,송파구,서울특별시 송파구 잠실동 205-17,37.50908813,127.0840569,521,360.90500000000003,131.51999999999998,118.503,610.928
299,V02Q1940283,28.52268907563025,5913.09243697479,0.20252100840336146,성북구,서울특별시 성북구 보문동7가 104-1,37.58060195,127.0230302,278,242.991,189.84,177.232,610.063
534,V02Q1940827,28.83333333333334,4193.80303030303,0.1340909090909091,종로구,서울특별시 종로구 동숭동 6-31,37.58325045,127.00581499999998,512,352.64000000000004,133.68,123.51899999999999,609.839
658,V02Q1940943,29.04687500000001,3287.3359375,0.10234374999999993,양천구,서울특별시 양천구 목동 616-15,37.54850717,126.8646481,636,412.699,103.92,91.75099999999999,608.37
457,V02Q1940635,28.769117647058806,4432.044117647059,0.15441176470588233,마포구,서울특별시 마포구 망원동 471-39,37.56127599,126.9033309,436,326.192,151.92,129.789,607.901
72,V02Q1940411,28.538260869565214,3920.04347826087,0.41043478260869576,광진구,서울특별시 광진구 구의동 607,37.53387824,127.091521,55,248.50100000000003,243.35999999999999,114.532,606.393
474,V02Q1940418,28.75426356589147,4606.961240310077,0.1503875968992248,성북구,서울특별시 성북구 길음동 1280-5,37.60987793,127.0175342,452,321.78400000000005,148.07999999999998,136.268,606.1320000000001
150,V02Q1940805,28.238461538461536,7274.176923076922,0.2815384615384616,양천구,서울특별시 양천구 신정동 1280-1,37.51324732,126.8349248,130,180.17700000000002,225.35999999999999,200.22199999999998,605.759
204,V02Q1940264,28.368333333333336,6575.841666666666,0.2508333333333333,도봉구,서울특별시 도봉구 도봉동 637-90,37.67118144,127.0451551,183,204.42100000000002,212.64,188.1,605.1610000000001
1016,V02Q1940538,29.454198473282446,135.18320610687022,0.0,관악구,서울특별시 관악구 봉천동 975-24,37.48627768,126.936066,990,528.409,33.839999999999996,42.217999999999996,604.467
517,V02Q1940050,28.808870967741928,4179.5161290322585,0.13790322580645162,구로구,서울특별시 구로구 개봉동 139-54,37.49954171,126.8507733,495,343.824,137.76,122.68299999999999,604.267
318,V02Q1940455,28.54772727272727,5589.954545454545,0.19621212121212125,양천구,서울특별시 양천구 목동 929,37.54277585,126.881433,297,251.80700000000002,185.28,166.78199999999998,603.8689999999999
97,V02Q1940872,28.106923076923074,8794.430769230768,0.34769230769230763,은평구,서울특별시 은평구 불광동 613-2,37.61059265,126.9329957,79,154.28,237.6,211.29899999999998,603.179
416,V02Q1940226,28.66551724137929,4944.327586206897,0.16637931034482756,노원구,서울특별시 노원구 월계동 47-33,37.61544877,127.0646091,395,292.03000000000003,161.76,149.017,602.807
669,V02Q1940740,29.026315789473692,3436.857142857143,0.09999999999999996,양천구,서울특별시 양천구 신월동 867,37.52706161,126.8480605,647,406.08700000000005,101.28,95.304,602.671
335,V02Q1940474,28.581102362204717,5300.708661417323,0.18976377952755905,금천구,서울특별시 금천구 독산동 330-7,37.46879478,126.8937982,314,260.62300000000005,181.2,159.885,601.7080000000001
523,V02Q1940311,28.801709401709424,4188.769230769231,0.1367521367521367,중랑구,서울특별시 중랑구 중화동 54-4,37.60067531,127.0819374,501,341.069,136.32,123.101,600.49
707,V02Q1940187,29.077519379844965,2976.4728682170544,0.0891472868217054,강서구,서울특별시 강서구 화곡동 1117,37.55295757,126.85136,685,424.821,92.16,82.55499999999999,599.536
424,V02Q1940585,28.682677165354328,4721.551181102362,0.1645669291338583,서대문구,서울특별시 서대문구 대현동 62-13,37.55882313,126.946573,403,298.64200000000005,159.84,140.448,598.9300000000001
363,V02Q1940236,28.601562499999996,5220.6015625,0.18046875,강남구,서울특별시 강남구 도곡동 893-9,37.4881537,127.0394136,342,265.582,174.48,156.959,597.021
665,V02Q1940169,28.996825396825404,3484.722222222222,0.10079365079365077,영등포구,서울특별시 영등포구 대림동 904-2,37.4965129,126.906686,643,396.16900000000004,102.0,96.976,595.145
578,V02Q1940476,28.848062015503878,3933.697674418605,0.12325581395348828,은평구,서울특별시 은평구 신사동 192-1,37.59234803,126.9065632,556,356.497,123.11999999999999,115.15899999999999,594.7760000000001
641,V02Q1940792,28.999218750000008,3244.0625,0.10703124999999993,양천구,서울특별시 양천구 목동 724-1,37.53842273,126.86453,619,396.72,108.0,89.452,594.172
366,V02Q1940356,28.619230769230782,4930.846153846154,0.17923076923076925,동작구,서울특별시 동작구 흑석동 264-27,37.50454947,126.9674184,345,271.64300000000003,173.76,148.599,594.002
281,V02Q1940681,28.784375000000008,2327.1484375,0.20859375,관악구,서울특별시 관악구 남현동 1071-41,37.47559625,126.9735982,260,331.70200000000006,194.16,68.134,593.9960000000001
314,V02Q1940878,28.510447761194023,5609.731343283582,0.19776119402985076,영등포구,서울특별시 영등포구 여의도동 85,37.52441417,126.9370134,293,239.68500000000003,186.23999999999998,168.036,593.961
313,V02Q1940815,28.488732394366178,5749.577464788732,0.197887323943662,광진구,서울특별시 광진구 자양동 427-28,37.52999155,127.0710049,292,234.72600000000003,186.48,172.42499999999998,593.631
226,V02Q1940876,28.339285714285715,6490.642857142857,0.2378571428571429,양천구,서울특별시 양천구 목동 946-1,37.54305082,126.8690922,205,198.91100000000003,207.35999999999999,186.428,592.6990000000001
386,V02Q1940473,28.61551724137929,5085.5862068965525,0.17413793103448275,성동구,서울특별시 성동구 금호동1가 1813,37.55680966,127.0199202,365,270.541,168.95999999999998,152.779,592.28
813,V02Q1940536,29.18778625954198,1785.0687022900765,0.040458015267175566,중구,서울특별시 중구 예관동 120-1,37.56356092,126.9972196,791,463.391,66.72,60.192,590.303
308,V02Q1940830,28.485344827586196,5609.5,0.2,용산구,서울특별시 용산구 이촌동 376,37.52148869,126.9594472,287,233.62400000000002,187.92,167.827,589.371
755,V02Q1940104,29.117557251908394,2482.9541984732823,0.06870229007633585,강서구,서울특별시 강서구 등촌동 653-8,37.55515562,126.858558,733,437.494,80.64,71.06,589.194
661,V02Q1940542,28.981889763779535,3366.3543307086616,0.10157480314960628,마포구,서울특별시 마포구 마포동 418-2,37.53539263,126.9444368,639,392.312,103.2,93.63199999999999,589.144
516,V02Q1940057,28.764655172413782,4315.818965517241,0.13793103448275856,구로구,서울특별시 구로구 개봉동 416-2,37.50526429,126.8451274,494,324.53900000000004,138.0,126.445,588.984
568,V02Q1940747,28.8362962962963,3800.955555555556,0.12518518518518515,동작구,서울특별시 동작구 상도동 518-7,37.499726,126.9513962,546,353.19100000000003,125.52,108.47099999999999,587.182
838,V02Q1940047,29.2,1396.5,0.023387096774193556,구로구,서울특별시 구로구 가리봉동 132-53,37.48214478,126.8893389,814,468.35,61.199999999999996,57.056999999999995,586.6070000000001
953,V02Q1941000,29.55530303030303,0.0,0.0,관악구,서울특별시 관악구 신림동길 14,37.4871672,126.9259298,927,546.041,30.72,9.405,586.166
701,V02Q1940206,29.019379844961254,3244.069767441861,0.09147286821705423,성북구,서울특별시 성북구 하월곡동 81-15,37.609442,127.0341014,679,402.781,93.6,89.661,586.0419999999999
833,V02Q1940728,29.23203124999999,525.0234375,0.02578125000000001,마포구,서울특별시 마포구 염리동 169-12,37.54496287,126.9471,810,476.61500000000007,62.16,46.189,584.964
253,V02Q1940347,28.35913043478261,5999.365217391303,0.2208695652173913,은평구,서울특별시 은평구 증산동 231,37.58442752,126.9052244,232,203.31900000000002,200.88,180.158,584.357
317,V02Q1940120,28.481132075471695,5580.169811320754,0.19622641509433966,동대문구,서울특별시 동대문구 장안동 284-5,37.57946643,127.07244640000002,296,231.97100000000003,185.51999999999998,166.364,583.855
398,V02Q1940950,28.621641791044784,4812.104477611941,0.17089552238805966,노원구,서울특별시 노원구 공릉동 552-4,37.62280993,127.0749633,377,272.745,166.07999999999998,143.792,582.617
501,V02Q1940342,28.74715447154471,4123.642276422765,0.14146341463414633,도봉구,서울특별시 도봉구 쌍문동 315-361,37.64807136,127.0290801,479,319.58000000000004,141.6,121.011,582.191
155,V02Q1940089,28.12677165354331,7208.259842519685,0.27559055118110243,동대문구,서울특별시 동대문구 회기동 3-2,37.59192024,127.0546253,135,156.484,224.16,199.386,580.03
632,V02Q1940433,28.89262295081966,3549.991803278689,0.10983606557377043,서초구,서울특별시 서초구 서초동 1740-19,37.49145971,127.01016640000002,610,369.721,110.16,99.27499999999999,579.156
117,V02Q1940157,27.981415929203536,8296.194690265487,0.31858407079646023,노원구,서울특별시 노원구 하계동 336-45,37.63164114,127.0674542,99,137.75,232.79999999999998,208.373,578.923
557,V02Q1940339,28.808264462809912,3790.3057851239673,0.12727272727272726,은평구,서울특별시 은평구 갈현동 389-9,37.62346645,126.9169061,535,343.273,128.16,107.217,578.65
41,V02Q1940183,27.76535433070867,12617.299212598426,0.5299212598425197,노원구,서울특별시 노원구 중계동 87-1,37.64774288,127.0811226,25,104.69000000000001,250.56,221.749,576.999
49,OC3CL200018,28.71282051282051,0.0,0.4923076923076923,성동구,서울특별시 성동구 성수동1가 685-285,37.54688198,127.0416428,32,310.213,248.88,15.466,574.5590000000001
773,V02Q1940268,29.088983050847453,2452.847457627119,0.0635593220338983,서초구,서울특별시 서초구 반포동 2-12,37.50661107,126.9924396,751,427.02500000000003,76.32,70.642,573.9870000000001
442,V02Q1940344,28.640336134453765,4664.176470588235,0.15798319327731092,성북구,서울특별시 성북구 길음동 918-8,37.60580033,127.0255563,421,280.459,155.51999999999998,137.731,573.71
845,V02Q1940845,29.17819548872181,1165.2932330827068,0.021052631578947368,송파구,서울특별시 송파구 문정동 28-9,37.48976406,127.1242858,821,458.98300000000006,59.519999999999996,54.339999999999996,572.8430000000001
548,V02Q1940701,28.784962406015037,3813.406015037594,0.12857142857142853,관악구,서울특별시 관악구 신림동 808-173,37.47373839,126.91766090000002,526,332.80400000000003,130.32,109.51599999999999,572.64
763,V02Q1940781,28.820895522388057,4854.57462686567,0.06567164179104477,송파구,서울특별시 송파구 잠실동 282,37.50615368,127.0847562,741,348.232,78.72,144.837,571.789
690,V02Q1940305,28.961983471074376,3190.0247933884298,0.09338842975206606,광진구,서울특별시 광진구 능동 156-2,37.55314962,127.08054380000002,668,387.90400000000005,96.24,87.15299999999999,571.297
32,V02Q1940414,27.716799999999992,13846.168,0.5832000000000002,강북구,서울특별시 강북구 번동 241,37.62596558,127.0461778,20,97.527,251.76,221.958,571.245
531,V02Q1940570,28.73709677419355,4081.5403225806454,0.1346774193548387,중구,서울특별시 중구 신당동 432-24,37.55435867,127.0080426,509,316.82500000000005,134.4,119.966,571.191
666,V02Q1940498,28.91111111111111,3297.3253968253966,0.10079365079365077,중구,서울특별시 중구 필동2가 19-6,37.56078213,126.9955455,644,373.57800000000003,102.24,91.96,567.778
734,V02Q1940504,29.03709677419355,2500.032258064516,0.08145161290322575,성동구,서울특별시 성동구 행당동 347,37.55905889,127.0289608,712,409.944,85.67999999999999,71.896,567.52
703,V02Q1940490,28.951162790697666,3192.4728682170544,0.08992248062015501,마포구,서울특별시 마포구 대흥동 401-1,37.545534,126.9410961,681,385.14900000000006,93.11999999999999,87.362,565.6310000000001
19,OC3CL200066,27.909909909909896,6487.144144144144,0.8288288288288289,강북구,서울특별시 강북구 미아동 754-63,37.62300566,127.0218915,9,123.97500000000001,254.39999999999998,186.01,564.385
392,V02Q1940049,28.545762711864423,4874.771186440678,0.17288135593220336,동대문구,서울특별시 동대문구 용두동 792-6,37.57668991,127.0362773,371,250.705,167.51999999999998,145.882,564.107
618,V02Q1940159,28.828571428571426,3584.973214285714,0.11428571428571427,중랑구,서울특별시 중랑구 중화동 326-87,37.59769087,127.0728232,596,349.88500000000005,113.52,100.32,563.725
360,V02Q1940396,28.48160000000001,5177.352,0.1816,서초구,서울특별시 서초구 서초동 1506-39,37.48874836,127.0067934,339,232.52200000000002,175.2,155.914,563.636
236,V02Q1940657,28.226356589147283,6118.116279069767,0.2302325581395349,관악구,서울특별시 관악구 봉천동 823,37.48976067,126.9478324,215,176.32000000000002,204.95999999999998,181.82999999999998,563.1099999999999
874,V02Q1940771,29.186046511627907,572.5736434108527,0.0038759689922480615,양천구,서울특별시 양천구 목동 912,37.53513426,126.8835081,849,462.84000000000003,52.8,47.443,563.083
381,V02Q1940556,28.513740458015256,5024.923664122138,0.17557251908396945,성동구,서울특별시 성동구 성수동2가 333-13,37.54024156,127.0546753,360,240.23600000000002,170.16,151.525,561.921
29,OC3CL200062,28.0201754385965,5541.815789473684,0.6219298245614037,강동구,서울특별시 강동구 천호동 463-38,37.5419464,127.1215875,17,143.26000000000002,252.48,165.319,561.059
549,V02Q1940582,28.720472440944892,4002.015748031496,0.12834645669291336,성동구,서울특별시 성동구 응봉동 193-165,37.54889736,127.0309606,527,312.41700000000003,130.07999999999998,117.249,559.746
333,V02Q1940729,28.404615384615386,5499.384615384615,0.1907692307692308,양천구,서울특별시 양천구 신정동 1319-1,37.51306228,126.8320835,312,212.686,181.68,164.90099999999998,559.2669999999999
673,V02Q1940568,28.880158730158712,3300.738095238096,0.09841269841269837,중구,서울특별시 중구 신당동 304-4,37.56285073,127.0132604,651,365.86400000000003,100.32,92.169,558.3530000000001
820,V02Q1940519,29.106106870229016,1813.4503816793888,0.035114503816793895,마포구,서울특별시 마포구 신수동 347,37.54719218,126.9344074,797,431.98400000000004,65.28,60.818999999999996,558.083
106,V02Q1940333,27.820930232558137,8488.503875968992,0.3333333333333333,은평구,서울특별시 은평구 불광동 73-11,37.6260814,126.9277105,88,111.85300000000001,235.44,210.463,557.756
687,V02Q1940695,28.942222222222203,2870.0592592592598,0.09407407407407402,종로구,서울특별시 종로구 행촌동 180-10,37.57191655,126.9619818,665,381.843,96.96,78.584,557.387
659,V02Q1940731,28.845038167938924,3480.381679389313,0.10229007633587782,용산구,서울특별시 용산구 용산동6가 69-172,37.51797343,126.9853257,637,355.39500000000004,103.67999999999999,96.767,555.8420000000001
202,V02Q1940704,28.11615384615385,6510.292307692308,0.25230769230769234,관악구,서울특별시 관악구 신림동 676-30,37.4632734,126.9180757,181,155.382,213.12,186.637,555.139
419,V02Q1940506,28.533606557377052,4893.8442622950815,0.16557377049180327,광진구,서울특별시 광진구 구의동 546-11,37.53508967,127.0932207,398,246.29700000000003,161.04,146.718,554.055
356,V02Q1940258,28.41735537190083,5285.107438016529,0.18347107438016527,성동구,서울특별시 성동구 하왕십리동 990-1,37.562998,127.0284354,335,218.19600000000003,176.16,159.46699999999998,553.823
294,V02Q1940151,28.24152542372881,6047.627118644069,0.20423728813559328,노원구,서울특별시 노원구 상계동 1146-11,37.67916022,127.0520828,273,180.728,191.04,180.785,552.553
576,V02Q1940615,28.716058394160587,4007.204379562044,0.12408759124087584,성동구,서울특별시 성동구 하왕십리동 1060,37.55783854,127.0241481,554,310.764,123.6,117.458,551.822
439,V02Q1940158,28.541964285714283,4870.9375,0.1598214285714285,서초구,서울특별시 서초구 반포동 755,37.50280638,126.99049709999998,418,249.603,156.23999999999998,145.673,551.516
510,V02Q1940100,28.64956521739131,4410.660869565218,0.13913043478260867,강남구,서울특별시 강남구 일원동 3-16,37.49497896,127.0931442,488,282.663,139.44,128.744,550.847
380,V02Q1940851,28.444274809160305,5174.297709923664,0.17557251908396948,강동구,서울특별시 강동구 암사동 501-4,37.55039085,127.1282922,359,223.70600000000002,170.64,155.70499999999998,550.0509999999999
746,V02Q1940713,28.986821705426344,2516.93023255814,0.07364341085271316,송파구,서울특별시 송파구 방이동 96-1,37.51618536,127.1145406,724,394.516,82.8,72.732,550.048
748,V02Q1940726,28.97692307692309,2660.5615384615385,0.07307692307692304,용산구,서울특별시 용산구 도원동 7-2,37.53901229,126.957917,726,391.761,82.32,74.822,548.903
575,V02Q1940775,28.712408759124102,3920.3430656934306,0.12408759124087587,송파구,서울특별시 송파구 송파동 2-3,37.50580146,127.1096638,553,309.66200000000003,123.83999999999999,114.741,548.243
412,V02Q1940689,28.52578124999999,4725.6328125,0.16796875000000006,관악구,서울특별시 관악구 봉천동 981-13,37.48334526,126.9377988,391,244.09300000000002,162.72,140.86599999999999,547.679
985,V02Q1940578,29.296062992125982,239.85826771653547,0.0,용산구,서울특별시 용산구 보광동 68,37.52637263,127.0028846,959,495.90000000000003,8.16,42.845,546.9050000000001
450,V02Q1940142,28.58292682926829,4483.528455284553,0.15609756097560976,강동구,서울특별시 강동구 암사동 548,37.55054502,127.1278725,429,261.725,153.6,131.25199999999998,546.577
636,V02Q1940800,28.79777777777777,3493.925925925926,0.10888888888888884,송파구,서울특별시 송파구 신천동 20,37.51999286,127.1122492,614,338.865,109.2,97.39399999999999,545.459
265,V02Q1940856,28.174468085106387,6072.524822695035,0.2141843971631205,용산구,서울특별시 용산구 한남동 726-366,37.5403991,127.0047736,244,165.85100000000003,198.0,181.412,545.263
599,V02Q1940745,28.76444444444446,3657.785185185185,0.1177777777777777,송파구,서울특별시 송파구 거여동 362-1,37.49410576,127.1414902,577,323.988,118.08,102.41,544.478
769,V02Q1940718,29.03185185185185,1561.1629629629626,0.06444444444444443,종로구,서울특별시 종로구 충신동 189-2,37.57389927,127.0046582,747,407.74,77.28,59.147,544.167
476,V02Q1940644,28.59384615384615,4491.323076923077,0.15000000000000002,성동구,서울특별시 성동구 행당동 287-30,37.56119718,127.034603,454,263.92900000000003,147.35999999999999,131.67,542.959
558,V02Q1940427,28.70169491525423,3816.898305084746,0.1262711864406779,서초구,서울특별시 서초구 서초동 1685-9,37.49974349,127.0168013,536,304.70300000000003,127.92,110.143,542.7660000000001
371,V02Q1940475,28.409523809523797,5102.4920634920645,0.17777777777777778,은평구,서울특별시 은평구 구산동 355-68,37.61398913,126.9065555,350,214.89000000000001,172.56,153.197,540.647
538,V02Q1940241,28.66160000000001,4020.6240000000003,0.13279999999999992,중랑구,서울특별시 중랑구 상봉동 206-27,37.59998915,127.0870729,516,289.27500000000003,132.72,118.085,540.08
849,V02Q1940702,29.115384615384606,461.5307692307693,0.01846153846153847,금천구,서울특별시 금천구 시흥동 1000-82,37.45335154,126.904031,825,435.29,58.559999999999995,45.771,539.621
624,V02Q1940113,28.771666666666665,3583.4666666666667,0.11333333333333327,강서구,서울특별시 강서구 염창동 208-2,37.55450397,126.8741754,602,327.845,111.83999999999999,99.902,539.587
812,V02Q1940440,29.0408,1928.2160000000001,0.0416,관악구,서울특별시 관악구 신림동 1602-3,37.48169168,126.927561,790,411.04600000000005,66.96,61.236999999999995,539.243
52,V02Q1940338,27.4575,11616.741666666667,0.4816666666666667,도봉구,서울특별시 도봉구 방학동 565-12,37.66090623,127.0234002,35,71.07900000000001,248.16,219.868,539.107
251,V02Q1940098,28.128448275862088,5978.396551724139,0.22241379310344828,강남구,서울특별시 강남구 수서동 727,37.48676489,127.1018579,230,157.03500000000003,201.35999999999999,179.531,537.9259999999999
863,V02Q1940501,29.1031746031746,991.0079365079364,0.00873015873015873,성동구,서울특별시 성동구 응봉동 228-16,37.55200342,127.0363244,838,430.331,55.44,51.623,537.394
1021,V02Q1940220,29.24690265486725,534.858407079646,0.0,금천구,서울특별시 금천구 시흥동 267-9,37.44953803,126.9147027,995,479.92100000000005,9.36,46.607,535.888
851,V02Q1940551,29.073170731707307,1063.2439024390244,0.017073170731707322,서대문구,서울특별시 서대문구 천연동 80-41,37.56877486,126.9608834,827,424.27000000000004,58.08,52.668,535.018
403,V02Q1940636,28.432835820895534,4916.671641791045,0.1701492537313433,성동구,서울특별시 성동구 금호동2가 1216,37.55227266,127.0230202,382,221.502,164.88,148.39,534.7719999999999
672,V02Q1940383,28.92666666666667,1372.9583333333333,0.09916666666666664,광진구,서울특별시 광진구 자양동 831-1,37.53328566,127.0656475,650,376.333,100.56,56.638999999999996,533.532
344,V02Q1940324,28.26694214876033,5614.289256198347,0.187603305785124,도봉구,서울특별시 도봉구 쌍문동 137-114,37.65153612,127.0306318,323,185.687,179.04,168.245,532.972
266,V02Q1940245,28.15,5766.666666666668,0.21416666666666664,노원구,서울특별시 노원구 상계동 1054-4,37.6737242,127.0505972,245,161.443,197.76,173.261,532.4639999999999
816,V02Q1940244,29.047899159663853,981.9495798319326,0.037815126050420166,영등포구,서울특별시 영등포구 양평동3가 91,37.53272746,126.8933322,793,413.25000000000006,66.24,51.205,530.695
147,V02Q1940097,27.741379310344833,7402.232758620688,0.28362068965517245,동대문구,서울특별시 동대문구 휘경동 43-179,37.58522784,127.0655327,127,101.935,226.07999999999998,201.685,529.7
767,V02Q1940200,28.933628318584073,2512.433628318584,0.0646017699115044,광진구,서울특별시 광진구 중곡동 695,37.56850197,127.0801045,745,379.088,77.75999999999999,72.314,529.162
579,V02Q1940772,28.6648854961832,3964.404580152672,0.1229007633587786,송파구,서울특별시 송파구 석촌동 265,37.50363119,127.1035033,557,290.377,122.88,115.786,529.043
262,V02Q1940831,28.08139534883719,5944.279069767442,0.216279069767442,강동구,서울특별시 강동구 암사동 81-1,37.56700001,127.1368127,241,151.525,198.72,178.695,528.94
1038,V02Q1940693,29.227343749999992,206.2265625,0.0,금천구,서울특별시 금천구 시흥동 1000-35,37.45606838,126.9003178,1010,474.41100000000006,11.28,42.635999999999996,528.327
22,V02Q1940189,27.2784,14013.983999999999,0.7743999999999999,강서구,서울특별시 강서구 화곡동 산 41-7,37.54175046,126.8515917,11,50.69200000000001,253.92,222.167,526.779
779,V02Q1940600,28.94427480916032,2389.7480916030536,0.05877862595419848,용산구,서울특별시 용산구 이촌동 171-1,37.52444602,126.9568426,757,382.394,74.88,69.179,526.453
598,V02Q1940462,28.854918032786887,577.4016393442622,0.11803278688524588,관악구,서울특별시 관악구 신림동 1469-7,37.48937978,126.9223696,576,360.35400000000004,118.32,47.652,526.326
368,V02Q1940088,28.322314049586787,5178.0,0.1785123966942149,동대문구,서울특별시 동대문구 답십리동 530-10,37.56782032,127.0525347,347,196.70700000000002,173.28,156.123,526.11
583,V02Q1940757,28.665925925925933,3857.392592592593,0.12222222222222215,송파구,서울특별시 송파구 거여동 127-29,37.49672263,127.1428573,561,292.581,121.92,111.606,526.107
